[{"code":"abromiskes","name":"Abromi\u0161k\u0117s","administrativeDivision":"Elektr\u0117n\u0173 savivaldyb\u0117","countryCode":"LT","coordinates":{"latitude":54.7825,"longitude":24.71032}},{"code":"acokavai","name":"Acokavai","administrativeDivision":"Radvili\u0161kio rajono savivaldyb\u0117","countryCode":"LT","coordinates":{"latitude":55.72656,"longitude":23.34748}},{"code":"adakavas","name":"Adakavas","administrativeDivision":"Taurag\u0117s rajono savivaldyb\u0117","countryCode":"LT","coordinates":{"latitude":55.40348,"longitude":22.66207}},{"code":"adomyne","name":"Adomyn\u0117","administrativeDivision":"Kupi\u0161kio rajono savivaldyb\u0117","countryCode":"LT","coordinates":{"latitude":55.74974,"longitude":25.30647}},{"code":"adutiskis","name":"Aduti\u0161kis","administrativeDivision":"\u0160ven\u010dioni\u0173 rajono savivaldyb\u0117","countryCode":"LT","coordinates":{"latitude":55.15734,"longitude":26.58675}},{"code":"agluonai","name":"Agluonai","administrativeDivision":"Akmen\u0117s rajono savivaldyb\u0117","countryCode":"LT","coordinates":{"latitude":56.33145,"longitude":22.70169}},{"code":"agluonenai","name":"Agluon\u0117nai","administrativeDivision":"Klaip\u0117dos rajono savivaldyb\u0117","countryCode":"LT","coordinates":{"latitude":55.59139,"longitude":21.3957}},{"code":"aistiskiai","name":"Aisti\u0161kiai","administrativeDivision":"Kalvarijos savivaldyb\u0117","countryCode":"LT","coordinates":{"latitude":54.4224,"longitude":23.01616}},{"code":"akademija","name":"Akademija","administrativeDivision":"Kauno rajono savivaldyb\u0117","countryCode":"LT","coordinates":{"latitude":54.89538,"longitude":23.8238}},{"code":"akademija-2","name":"Akademija","administrativeDivision":"K\u0117daini\u0173 rajono savivaldyb\u0117","countryCode":"LT","coordinates":{"latitude":55.39757,"longitude":23.85744}},{"code":"aklasis-ezeras","name":"Aklasis E\u017eeras","administrativeDivision":"Jonavos rajono savivaldyb\u0117","countryCode":"LT","coordinates":{"latitude":55.15036,"longitude":24.47722}},{"code":"akmene","name":"Akmen\u0117","administrativeDivision":"Akmen\u0117s rajono savivaldyb\u0117","countryCode":"LT","coordinates":{"latitude":56.24605,"longitude":22.7546}},{"code":"akmene-ii","name":"Akmen\u0117 II","administrativeDivision":"Akmen\u0117s rajono savivaldyb\u0117","countryCode":"LT","coordinates":{"latitude":56.25503,"longitude":22.74245}},{"code":"akmene-iii","name":"Akmen\u0117 III","administrativeDivision":"Akmen\u0117s rajono savivaldyb\u0117","countryCode":"LT","coordinates":{"latitude":56.24853,"longitude":22.77234}},{"code":"akmeniai","name":"Akmeniai","administrativeDivision":"Lazdij\u0173 rajono savivaldyb\u0117","countryCode":"LT","coordinates":{"latitude":54.1584,"longitude":23.4983}},{"code":"akmeniskes","name":"Akmeni\u0161k\u0117s","administrativeDivision":"Vilniaus rajono savivaldyb\u0117","countryCode":"LT","coordinates":{"latitude":54.52143,"longitude":25.46808}},{"code":"akmenynai","name":"Akmenynai","administrativeDivision":"Kalvarijos savivaldyb\u0117","countryCode":"LT","coordinates":{"latitude":54.41328,"longitude":23.09405}},{"code":"akmenyne","name":"Akmenyn\u0117","administrativeDivision":"\u0160al\u010dinink\u0173 rajono savivaldyb\u0117","countryCode":"LT","coordinates":{"latitude":54.37468,"longitude":25.49592}},{"code":"aknystos","name":"Aknystos","administrativeDivision":"Anyk\u0161\u010di\u0173 rajono savivaldyb\u0117","countryCode":"LT","coordinates":{"latitude":55.58336,"longitude":25.36387}},{"code":"akstinai","name":"Akstinai","administrativeDivision":"Raseini\u0173 rajono savivaldyb\u0117","countryCode":"LT","coordinates":{"latitude":55.46474,"longitude":23.23698}},{"code":"akuotai","name":"Akuotai","administrativeDivision":"Kauno rajono savivaldyb\u0117","countryCode":"LT","coordinates":{"latitude":55.07331,"longitude":23.55138}},{"code":"alanta","name":"Alanta","administrativeDivision":"Mol\u0117t\u0173 rajono savivaldyb\u0117","countryCode":"LT","coordinates":{"latitude":55.35112,"longitude":25.29207}},{"code":"alejai","name":"Al\u0117jai","administrativeDivision":"Raseini\u0173 rajono savivaldyb\u0117","countryCode":"LT","coordinates":{"latitude":55.43996,"longitude":23.05144}},{"code":"aleknonys","name":"Aleknonys","administrativeDivision":"Alytaus rajono savivaldyb\u0117","countryCode":"LT","coordinates":{"latitude":54.4574,"longitude":23.6636}},{"code":"aleksandravas","name":"Aleksandravas","administrativeDivision":"Plung\u0117s rajono savivaldyb\u0117","countryCode":"LT","coordinates":{"latitude":55.92605,"longitude":21.63071}},{"code":"aleksandravele","name":"Aleksandrav\u0117l\u0117","administrativeDivision":"Roki\u0161kio rajono savivaldyb\u0117","countryCode":"LT","coordinates":{"latitude":55.88431,"longitude":25.94007}},{"code":"aleksandrija","name":"Aleksandrija","administrativeDivision":"Skuodo rajono savivaldyb\u0117","countryCode":"LT","coordinates":{"latitude":56.28881,"longitude":21.69094}},{"code":"aleksandrija-2","name":"Aleksandrija","administrativeDivision":"\u0160iauli\u0173 rajono savivaldyb\u0117","countryCode":"LT","coordinates":{"latitude":55.92193,"longitude":23.36513}},{"code":"aleksandrija-3","name":"Aleksandrija","administrativeDivision":"Kupi\u0161kio rajono savivaldyb\u0117","countryCode":"LT","coordinates":{"latitude":55.82125,"longitude":25.01208}},{"code":"alesninkai","name":"Alesninkai","administrativeDivision":"Elektr\u0117n\u0173 savivaldyb\u0117","countryCode":"LT","coordinates":{"latitude":54.78968,"longitude":24.81239}},{"code":"alionys-i","name":"Alionys I","administrativeDivision":"\u0160irvint\u0173 rajono savivaldyb\u0117","countryCode":"LT","coordinates":{"latitude":55.02084,"longitude":25.1102}},{"code":"alizava","name":"Alizava","administrativeDivision":"Kupi\u0161kio rajono savivaldyb\u0117","countryCode":"LT","coordinates":{"latitude":55.9723,"longitude":25.00109}},{"code":"alkiskiai","name":"Alki\u0161kiai","administrativeDivision":"Akmen\u0117s rajono savivaldyb\u0117","countryCode":"LT","coordinates":{"latitude":56.26806,"longitude":22.83865}},{"code":"alksnenai","name":"Alksn\u0117nai","administrativeDivision":"Plung\u0117s rajono savivaldyb\u0117","countryCode":"LT","coordinates":{"latitude":55.9237,"longitude":21.72658}},{"code":"alksnenai-2","name":"Alksn\u0117nai","administrativeDivision":"K\u0117daini\u0173 rajono savivaldyb\u0117","countryCode":"LT","coordinates":{"latitude":55.4846,"longitude":23.8426}},{"code":"alksniupiai","name":"Alksniupiai","administrativeDivision":"Radvili\u0161kio rajono savivaldyb\u0117","countryCode":"LT","coordinates":{"latitude":55.81676,"longitude":23.7782}},{"code":"alove","name":"Alov\u0117","administrativeDivision":"Alytaus rajono savivaldyb\u0117","countryCode":"LT","coordinates":{"latitude":54.3501,"longitude":24.1734}},{"code":"alsedziai","name":"Als\u0117d\u017eiai","administrativeDivision":"Plung\u0117s rajono savivaldyb\u0117","countryCode":"LT","coordinates":{"latitude":56.02887,"longitude":22.04821}},{"code":"alsiai","name":"Alsiai","administrativeDivision":"Joni\u0161kio rajono savivaldyb\u0117","countryCode":"LT","coordinates":{"latitude":56.32273,"longitude":23.45249}},{"code":"altoniskiai","name":"Altoni\u0161kiai","administrativeDivision":"Kauno rajono savivaldyb\u0117","countryCode":"LT","coordinates":{"latitude":54.9475,"longitude":23.59103}},{"code":"aluona","name":"Aluona","administrativeDivision":"Trak\u0173 rajono savivaldyb\u0117","countryCode":"LT","coordinates":{"latitude":54.56273,"longitude":24.9014}},{"code":"alvitas","name":"Alvitas","administrativeDivision":"Vilkavi\u0161kio rajono savivaldyb\u0117","countryCode":"LT","coordinates":{"latitude":54.63726,"longitude":22.92615}},{"code":"alytaus-kaimas","name":"Alytaus kaimas","administrativeDivision":"Alytaus rajono savivaldyb\u0117","countryCode":"LT","coordinates":{"latitude":54.39337,"longitude":24.10826}},{"code":"alytus","name":"Alytus","administrativeDivision":"Alytaus miesto savivaldyb\u0117","countryCode":"LT","coordinates":{"latitude":54.39613,"longitude":24.04593}},{"code":"ambraziskiai","name":"Ambrazi\u0161kiai","administrativeDivision":"Mol\u0117t\u0173 rajono savivaldyb\u0117","countryCode":"LT","coordinates":{"latitude":55.148,"longitude":25.29005}},{"code":"anavilis","name":"Anavilis","administrativeDivision":"Vilniaus rajono savivaldyb\u0117","countryCode":"LT","coordinates":{"latitude":54.93993,"longitude":25.22184}},{"code":"anciskiai","name":"An\u010di\u0161kiai","administrativeDivision":"Bir\u017e\u0173 rajono savivaldyb\u0117","countryCode":"LT","coordinates":{"latitude":55.96929,"longitude":24.66343}},{"code":"anciunai","name":"Anci\u016bnai","administrativeDivision":"\u0160irvint\u0173 rajono savivaldyb\u0117","countryCode":"LT","coordinates":{"latitude":55.12446,"longitude":24.98058}},{"code":"andrioniskis","name":"Andrioni\u0161kis","administrativeDivision":"Anyk\u0161\u010di\u0173 rajono savivaldyb\u0117","countryCode":"LT","coordinates":{"latitude":55.5989,"longitude":25.04506}},{"code":"andriskiai","name":"Andri\u0161kiai","administrativeDivision":"Vilkavi\u0161kio rajono savivaldyb\u0117","countryCode":"LT","coordinates":{"latitude":54.71478,"longitude":22.94107}},{"code":"andrusaiciai","name":"Andru\u0161ai\u010diai","administrativeDivision":"Raseini\u0173 rajono savivaldyb\u0117","countryCode":"LT","coordinates":{"latitude":55.35885,"longitude":23.18415}},{"code":"angininkai","name":"Angininkai","administrativeDivision":"Alytaus rajono savivaldyb\u0117","countryCode":"LT","coordinates":{"latitude":54.39741,"longitude":23.72251}},{"code":"angiriai","name":"Angiriai","administrativeDivision":"K\u0117daini\u0173 rajono savivaldyb\u0117","countryCode":"LT","coordinates":{"latitude":55.2876,"longitude":23.7466}},{"code":"anglininkai","name":"Anglininkai","administrativeDivision":"Bir\u017e\u0173 rajono savivaldyb\u0117","countryCode":"LT","coordinates":{"latitude":56.12525,"longitude":24.85092}},{"code":"ankstakiai","name":"Ank\u0161takiai","administrativeDivision":"Kretingos rajono savivaldyb\u0117","countryCode":"LT","coordinates":{"latitude":55.92824,"longitude":21.21736}},{"code":"antakalnis","name":"Antakalnis","administrativeDivision":"Kai\u0161iadori\u0173 rajono savivaldyb\u0117","countryCode":"LT","coordinates":{"latitude":54.84894,"longitude":24.34296}},{"code":"antakalnis-2","name":"Antakalnis","administrativeDivision":"Ukmerg\u0117s rajono savivaldyb\u0117","countryCode":"LT","coordinates":{"latitude":55.10869,"longitude":24.69372}},{"code":"antakalnis-iii","name":"Antakalnis III","administrativeDivision":"Ukmerg\u0117s rajono savivaldyb\u0117","countryCode":"LT","coordinates":{"latitude":55.2059,"longitude":24.86426}},{"code":"antalge","name":"Antalg\u0117","administrativeDivision":"Utenos rajono savivaldyb\u0117","countryCode":"LT","coordinates":{"latitude":55.48864,"longitude":25.48492}},{"code":"antaliepte","name":"Antaliept\u0117","administrativeDivision":"Zaras\u0173 rajono savivaldyb\u0117","countryCode":"LT","coordinates":{"latitude":55.66012,"longitude":25.86763}},{"code":"antalksne","name":"Antalksn\u0117","administrativeDivision":"Ignalinos rajono savivaldyb\u0117","countryCode":"LT","coordinates":{"latitude":55.34573,"longitude":25.99863}},{"code":"antanase","name":"Antana\u0161\u0117","administrativeDivision":"Roki\u0161kio rajono savivaldyb\u0117","countryCode":"LT","coordinates":{"latitude":55.9286,"longitude":25.80808}},{"code":"antanavas","name":"Antanavas","administrativeDivision":"Kazl\u0173 R\u016bdos savivaldyb\u0117","countryCode":"LT","coordinates":{"latitude":54.70444,"longitude":23.30723}},{"code":"antasava","name":"Anta\u0161ava","administrativeDivision":"Kupi\u0161kio rajono savivaldyb\u0117","countryCode":"LT","coordinates":{"latitude":55.90636,"longitude":24.80443}},{"code":"antazave","name":"Antazav\u0117","administrativeDivision":"Zaras\u0173 rajono savivaldyb\u0117","countryCode":"LT","coordinates":{"latitude":55.81248,"longitude":25.92872}},{"code":"antezeriai","name":"Ante\u017eeriai","administrativeDivision":"Vilniaus rajono savivaldyb\u0117","countryCode":"LT","coordinates":{"latitude":54.73603,"longitude":25.18134}},{"code":"antkoptis","name":"Antkoptis","administrativeDivision":"Klaip\u0117dos rajono savivaldyb\u0117","countryCode":"LT","coordinates":{"latitude":55.7045,"longitude":21.5855}},{"code":"anuziai","name":"Anu\u017eiai","administrativeDivision":"Pag\u0117gi\u0173 savivaldyb\u0117","countryCode":"LT","coordinates":{"latitude":55.15544,"longitude":21.84962}},{"code":"anyksciai","name":"Anyk\u0161\u010diai","administrativeDivision":"Anyk\u0161\u010di\u0173 rajono savivaldyb\u0117","countryCode":"LT","coordinates":{"latitude":55.52579,"longitude":25.10612}},{"code":"anziliai","name":"An\u017eiliai","administrativeDivision":"Raseini\u0173 rajono savivaldyb\u0117","countryCode":"LT","coordinates":{"latitude":55.39676,"longitude":22.98528}},{"code":"apascia","name":"Apa\u0161\u010dia","administrativeDivision":"Roki\u0161kio rajono savivaldyb\u0117","countryCode":"LT","coordinates":{"latitude":56.0431,"longitude":25.18618}},{"code":"apuole","name":"Apuol\u0117","administrativeDivision":"Skuodo rajono savivaldyb\u0117","countryCode":"LT","coordinates":{"latitude":56.24039,"longitude":21.66089}},{"code":"arimaiciai","name":"Arimai\u010diai","administrativeDivision":"Radvili\u0161kio rajono savivaldyb\u0117","countryCode":"LT","coordinates":{"latitude":55.79586,"longitude":23.64493}},{"code":"ariogala","name":"Ariogala","administrativeDivision":"Raseini\u0173 rajono savivaldyb\u0117","countryCode":"LT","coordinates":{"latitude":55.26265,"longitude":23.48281}},{"code":"aristava","name":"Aristava","administrativeDivision":"K\u0117daini\u0173 rajono savivaldyb\u0117","countryCode":"LT","coordinates":{"latitude":55.2927,"longitude":24.0876}},{"code":"arlaviskes","name":"Arlavi\u0161k\u0117s","administrativeDivision":"Kauno rajono savivaldyb\u0117","countryCode":"LT","coordinates":{"latitude":54.80854,"longitude":24.19842}},{"code":"armalenai","name":"Armal\u0117nai","administrativeDivision":"\u0160ilut\u0117s rajono savivaldyb\u0117","countryCode":"LT","coordinates":{"latitude":55.34164,"longitude":21.53109}},{"code":"armeniskiai","name":"Armeni\u0161kiai","administrativeDivision":"Jurbarko rajono savivaldyb\u0117","countryCode":"LT","coordinates":{"latitude":55.14721,"longitude":23.38642}},{"code":"arnionys-i","name":"Arnionys I","administrativeDivision":"Mol\u0117t\u0173 rajono savivaldyb\u0117","countryCode":"LT","coordinates":{"latitude":55.05243,"longitude":25.71832}},{"code":"arskainiai","name":"Ar\u0161kainiai","administrativeDivision":"Raseini\u0173 rajono savivaldyb\u0117","countryCode":"LT","coordinates":{"latitude":55.38028,"longitude":23.14308}},{"code":"arvydai","name":"Arvydai","administrativeDivision":"Vilniaus rajono savivaldyb\u0117","countryCode":"LT","coordinates":{"latitude":54.82287,"longitude":25.55988}},{"code":"asminta","name":"A\u0161minta","administrativeDivision":"Prien\u0173 rajono savivaldyb\u0117","countryCode":"LT","coordinates":{"latitude":54.6813,"longitude":24.00358}},{"code":"atkociai","name":"Atko\u010diai","administrativeDivision":"Ukmerg\u0117s rajono savivaldyb\u0117","countryCode":"LT","coordinates":{"latitude":55.25369,"longitude":24.57743}},{"code":"atkociskes","name":"Atko\u010di\u0161k\u0117s","administrativeDivision":"Utenos rajono savivaldyb\u0117","countryCode":"LT","coordinates":{"latitude":55.51861,"longitude":25.57542}},{"code":"augalai","name":"Augalai","administrativeDivision":"Vilkavi\u0161kio rajono savivaldyb\u0117","countryCode":"LT","coordinates":{"latitude":54.72287,"longitude":23.03464}},{"code":"augmenai","name":"Augm\u0117nai","administrativeDivision":"Radvili\u0161kio rajono savivaldyb\u0117","countryCode":"LT","coordinates":{"latitude":55.65386,"longitude":23.66118}},{"code":"augustinava","name":"Augustinava","administrativeDivision":"Roki\u0161kio rajono savivaldyb\u0117","countryCode":"LT","coordinates":{"latitude":55.9341,"longitude":25.36128}},{"code":"aukstadvaris","name":"Auk\u0161tadvaris","administrativeDivision":"Trak\u0173 rajono savivaldyb\u0117","countryCode":"LT","coordinates":{"latitude":54.57964,"longitude":24.52797}},{"code":"aukstadvaris-2","name":"Auk\u0161tadvaris","administrativeDivision":"Panev\u0117\u017eio rajono savivaldyb\u0117","countryCode":"LT","coordinates":{"latitude":55.47934,"longitude":24.30036}},{"code":"aukstakalniai","name":"Auk\u0161takalniai","administrativeDivision":"Roki\u0161kio rajono savivaldyb\u0117","countryCode":"LT","coordinates":{"latitude":55.84068,"longitude":25.55579}},{"code":"aukstdvaris","name":"Auk\u0161tdvaris","administrativeDivision":"K\u0117daini\u0173 rajono savivaldyb\u0117","countryCode":"LT","coordinates":{"latitude":55.1592,"longitude":23.5873}},{"code":"aukstelkai","name":"Auk\u0161telkai","administrativeDivision":"Radvili\u0161kio rajono savivaldyb\u0117","countryCode":"LT","coordinates":{"latitude":55.84816,"longitude":23.62524}},{"code":"aukstelke","name":"Auk\u0161telk\u0117","administrativeDivision":"\u0160iauli\u0173 rajono savivaldyb\u0117","countryCode":"LT","coordinates":{"latitude":55.8752,"longitude":23.20704}},{"code":"aukstieji-kapliai","name":"Auk\u0161tieji Kapliai","administrativeDivision":"K\u0117daini\u0173 rajono savivaldyb\u0117","countryCode":"LT","coordinates":{"latitude":55.2851,"longitude":24.1471}},{"code":"aukstikalniai","name":"Auk\u0161tikalniai","administrativeDivision":"Pasvalio rajono savivaldyb\u0117","countryCode":"LT","coordinates":{"latitude":56.0755,"longitude":24.39513}},{"code":"aukstkeliai","name":"Auk\u0161tkeliai","administrativeDivision":"Raseini\u0173 rajono savivaldyb\u0117","countryCode":"LT","coordinates":{"latitude":55.41879,"longitude":22.84598}},{"code":"aukstkiemiai","name":"Auk\u0161tkiemiai","administrativeDivision":"Klaip\u0117dos rajono savivaldyb\u0117","countryCode":"LT","coordinates":{"latitude":55.7645,"longitude":21.1682}},{"code":"aukstuole","name":"Auk\u0161tuol\u0117","administrativeDivision":"Vilniaus rajono savivaldyb\u0117","countryCode":"LT","coordinates":{"latitude":54.78675,"longitude":25.47359}},{"code":"aukstupenai","name":"Auk\u0161tup\u0117nai","administrativeDivision":"Kupi\u0161kio rajono savivaldyb\u0117","countryCode":"LT","coordinates":{"latitude":55.85041,"longitude":24.98996}},{"code":"aukstupiai","name":"Auk\u0161tupiai","administrativeDivision":"Taurag\u0117s rajono savivaldyb\u0117","countryCode":"LT","coordinates":{"latitude":55.27653,"longitude":22.09117}},{"code":"auksudys","name":"Auks\u016bdys","administrativeDivision":"Ma\u017eeiki\u0173 rajono savivaldyb\u0117","countryCode":"LT","coordinates":{"latitude":56.36688,"longitude":22.49556}},{"code":"auleliai","name":"Auleliai","administrativeDivision":"Anyk\u0161\u010di\u0173 rajono savivaldyb\u0117","countryCode":"LT","coordinates":{"latitude":55.66764,"longitude":25.46931}},{"code":"aunuvenai","name":"Aunuv\u0117nai","administrativeDivision":"Kelm\u0117s rajono savivaldyb\u0117","countryCode":"LT","coordinates":{"latitude":55.85714,"longitude":22.73905}},{"code":"ausra","name":"Au\u0161ra","administrativeDivision":"K\u0117daini\u0173 rajono savivaldyb\u0117","countryCode":"LT","coordinates":{"latitude":55.3606,"longitude":23.8754}},{"code":"avikilai","name":"Avikilai","administrativeDivision":"Marijampol\u0117s savivaldyb\u0117","countryCode":"LT","coordinates":{"latitude":54.50463,"longitude":23.31215}},{"code":"aviliai-ii","name":"Aviliai II","administrativeDivision":"Zaras\u0173 rajono savivaldyb\u0117","countryCode":"LT","coordinates":{"latitude":55.75532,"longitude":26.02551}},{"code":"avizieniai","name":"Avi\u017eieniai","administrativeDivision":"Vilniaus rajono savivaldyb\u0117","countryCode":"LT","coordinates":{"latitude":54.76438,"longitude":25.18229}},{"code":"avizieniai-2","name":"Avi\u017eieniai","administrativeDivision":"Lazdij\u0173 rajono savivaldyb\u0117","countryCode":"LT","coordinates":{"latitude":54.1728,"longitude":23.7278}},{"code":"avizonys","name":"Avi\u017eonys","administrativeDivision":"\u0160irvint\u0173 rajono savivaldyb\u0117","countryCode":"LT","coordinates":{"latitude":55.00046,"longitude":25.00797}},{"code":"azubaliai","name":"A\u017eubaliai","administrativeDivision":"Mol\u0117t\u0173 rajono savivaldyb\u0117","countryCode":"LT","coordinates":{"latitude":55.23957,"longitude":25.40823}},{"code":"azugiriai","name":"A\u017eugiriai","administrativeDivision":"Utenos rajono savivaldyb\u0117","countryCode":"LT","coordinates":{"latitude":55.47726,"longitude":25.44053}},{"code":"azulauke","name":"A\u017eulauk\u0117","administrativeDivision":"Vilniaus rajono savivaldyb\u0117","countryCode":"LT","coordinates":{"latitude":54.86906,"longitude":25.34756}},{"code":"azuolaiciai","name":"\u0104\u017euolai\u010diai","administrativeDivision":"K\u0117daini\u0173 rajono savivaldyb\u0117","countryCode":"LT","coordinates":{"latitude":55.3452,"longitude":23.8522}},{"code":"azuoline","name":"\u0104\u017euolin\u0117","administrativeDivision":"Vilniaus rajono savivaldyb\u0117","countryCode":"LT","coordinates":{"latitude":54.78478,"longitude":25.51028}},{"code":"azuoliniai","name":"\u0104\u017euoliniai","administrativeDivision":"Alytaus rajono savivaldyb\u0117","countryCode":"LT","coordinates":{"latitude":54.4298,"longitude":23.6022}},{"code":"azuolu-buda","name":"\u0104\u017euol\u0173 B\u016bda","administrativeDivision":"Kazl\u0173 R\u016bdos savivaldyb\u0117","countryCode":"LT","coordinates":{"latitude":54.70562,"longitude":23.52689}},{"code":"azuolyne","name":"\u0104\u017euolyn\u0117","administrativeDivision":"Pasvalio rajono savivaldyb\u0117","countryCode":"LT","coordinates":{"latitude":56.0506,"longitude":24.4111}},{"code":"azuozeriai","name":"A\u017euo\u017eeriai","administrativeDivision":"Anyk\u0161\u010di\u0173 rajono savivaldyb\u0117","countryCode":"LT","coordinates":{"latitude":55.50235,"longitude":25.03226}},{"code":"azytenai","name":"A\u017eyt\u0117nai","administrativeDivision":"K\u0117daini\u0173 rajono savivaldyb\u0117","countryCode":"LT","coordinates":{"latitude":55.4598,"longitude":23.6215}},{"code":"babriskes","name":"Babri\u0161k\u0117s","administrativeDivision":"Trak\u0173 rajono savivaldyb\u0117","countryCode":"LT","coordinates":{"latitude":54.61675,"longitude":24.92025}},{"code":"babrungas","name":"Babrungas","administrativeDivision":"Plung\u0117s rajono savivaldyb\u0117","countryCode":"LT","coordinates":{"latitude":55.92663,"longitude":21.86902}},{"code":"babtai","name":"Babtai","administrativeDivision":"Kauno rajono savivaldyb\u0117","countryCode":"LT","coordinates":{"latitude":55.08922,"longitude":23.7999}},{"code":"backininkai","name":"Ba\u010dkininkai","administrativeDivision":"\u0160ven\u010dioni\u0173 rajono savivaldyb\u0117","countryCode":"LT","coordinates":{"latitude":55.16903,"longitude":26.36077}},{"code":"backininkai-2","name":"Ba\u010dkininkai","administrativeDivision":"Prien\u0173 rajono savivaldyb\u0117","countryCode":"LT","coordinates":{"latitude":54.70177,"longitude":23.98495}},{"code":"backiskiai","name":"Ba\u010dki\u0161kiai","administrativeDivision":"Vilkavi\u0161kio rajono savivaldyb\u0117","countryCode":"LT","coordinates":{"latitude":54.60917,"longitude":23.15355}},{"code":"bagaslaviskis","name":"Bagaslavi\u0161kis","administrativeDivision":"\u0160irvint\u0173 rajono savivaldyb\u0117","countryCode":"LT","coordinates":{"latitude":55.073,"longitude":24.768}},{"code":"bagdononys","name":"Bagdononys","administrativeDivision":"Trak\u0173 rajono savivaldyb\u0117","countryCode":"LT","coordinates":{"latitude":54.62725,"longitude":24.70831}},{"code":"bagotoji","name":"Bagotoji","administrativeDivision":"Kazl\u0173 R\u016bdos savivaldyb\u0117","countryCode":"LT","coordinates":{"latitude":54.75574,"longitude":23.3484}},{"code":"bagrenas","name":"Bagr\u0117nas","administrativeDivision":"Prien\u0173 rajono savivaldyb\u0117","countryCode":"LT","coordinates":{"latitude":54.65252,"longitude":23.9915}},{"code":"baibiai","name":"Baibiai","administrativeDivision":"Zaras\u0173 rajono savivaldyb\u0117","countryCode":"LT","coordinates":{"latitude":55.62568,"longitude":25.95852}},{"code":"baiciai","name":"Bai\u010diai","administrativeDivision":"Klaip\u0117dos rajono savivaldyb\u0117","countryCode":"LT","coordinates":{"latitude":55.6663,"longitude":21.3811}},{"code":"baisogala","name":"Baisogala","administrativeDivision":"Radvili\u0161kio rajono savivaldyb\u0117","countryCode":"LT","coordinates":{"latitude":55.63893,"longitude":23.72312}},{"code":"bajorai","name":"Bajorai","administrativeDivision":"Roki\u0161kio rajono savivaldyb\u0117","countryCode":"LT","coordinates":{"latitude":55.98266,"longitude":25.60759}},{"code":"bajorai-2","name":"Bajorai","administrativeDivision":"Vilniaus rajono savivaldyb\u0117","countryCode":"LT","coordinates":{"latitude":54.76118,"longitude":25.23407}},{"code":"bajoriskiai","name":"Bajori\u0161kiai","administrativeDivision":"Lazdij\u0173 rajono savivaldyb\u0117","countryCode":"LT","coordinates":{"latitude":54.2214,"longitude":23.5187}},{"code":"baksenai","name":"Bak\u0161\u0117nai","administrativeDivision":"Kupi\u0161kio rajono savivaldyb\u0117","countryCode":"LT","coordinates":{"latitude":55.93756,"longitude":24.93505}},{"code":"balbieriskis","name":"Balbieri\u0161kis","administrativeDivision":"Prien\u0173 rajono savivaldyb\u0117","countryCode":"LT","coordinates":{"latitude":54.51491,"longitude":23.89086}},{"code":"balceriskes","name":"Balceri\u0161k\u0117s","administrativeDivision":"Elektr\u0117n\u0173 savivaldyb\u0117","countryCode":"LT","coordinates":{"latitude":54.77332,"longitude":24.84487}},{"code":"balciai","name":"Bal\u010diai","administrativeDivision":"\u0160ilut\u0117s rajono savivaldyb\u0117","countryCode":"LT","coordinates":{"latitude":55.34714,"longitude":21.93408}},{"code":"baleliai","name":"Baleliai","administrativeDivision":"Ukmerg\u0117s rajono savivaldyb\u0117","countryCode":"LT","coordinates":{"latitude":55.45886,"longitude":24.71285}},{"code":"balenos","name":"Bal\u0117nos","administrativeDivision":"Ma\u017eeiki\u0173 rajono savivaldyb\u0117","countryCode":"LT","coordinates":{"latitude":56.20023,"longitude":22.31663}},{"code":"balkunai","name":"Balk\u016bnai","administrativeDivision":"Alytaus rajono savivaldyb\u0117","countryCode":"LT","coordinates":{"latitude":54.3818,"longitude":23.8778}},{"code":"balninkai","name":"Balninkai","administrativeDivision":"Mol\u0117t\u0173 rajono savivaldyb\u0117","countryCode":"LT","coordinates":{"latitude":55.29443,"longitude":25.12099}},{"code":"balninkai-2","name":"Balninkai","administrativeDivision":"Alytaus rajono savivaldyb\u0117","countryCode":"LT","coordinates":{"latitude":54.3353,"longitude":24.1099}},{"code":"balsenai","name":"Bals\u0117nai","administrativeDivision":"Klaip\u0117dos rajono savivaldyb\u0117","countryCode":"LT","coordinates":{"latitude":55.6069,"longitude":21.6726}},{"code":"balsiai","name":"Balsiai","administrativeDivision":"Pakruojo rajono savivaldyb\u0117","countryCode":"LT","coordinates":{"latitude":56.01009,"longitude":23.98012}},{"code":"balsiai-2","name":"Balsiai","administrativeDivision":"\u0160ilal\u0117s rajono savivaldyb\u0117","countryCode":"LT","coordinates":{"latitude":55.51129,"longitude":22.21947}},{"code":"balsupiai","name":"Balsupiai","administrativeDivision":"Marijampol\u0117s savivaldyb\u0117","countryCode":"LT","coordinates":{"latitude":54.56172,"longitude":23.20709}},{"code":"baltininkai","name":"Baltininkai","administrativeDivision":"Tel\u0161i\u0173 rajono savivaldyb\u0117","countryCode":"LT","coordinates":{"latitude":55.85984,"longitude":22.4166}},{"code":"baltoji-voke","name":"Baltoji Vok\u0117","administrativeDivision":"\u0160al\u010dinink\u0173 rajono savivaldyb\u0117","countryCode":"LT","coordinates":{"latitude":54.45376,"longitude":25.11984}},{"code":"baltoji-voke-2","name":"Baltoji Vok\u0117","administrativeDivision":"Vilniaus rajono savivaldyb\u0117","countryCode":"LT","coordinates":{"latitude":54.59986,"longitude":25.19094}},{"code":"baltraitiske","name":"Baltraiti\u0161k\u0117","administrativeDivision":"Jurbarko rajono savivaldyb\u0117","countryCode":"LT","coordinates":{"latitude":55.20547,"longitude":23.13279}},{"code":"baltrusaiciai","name":"Baltru\u0161ai\u010diai","administrativeDivision":"Taurag\u0117s rajono savivaldyb\u0117","countryCode":"LT","coordinates":{"latitude":55.22342,"longitude":22.37441}},{"code":"baltrusiai","name":"Baltru\u0161iai","administrativeDivision":"\u0160aki\u0173 rajono savivaldyb\u0117","countryCode":"LT","coordinates":{"latitude":54.74719,"longitude":23.2101}},{"code":"baragine","name":"Baragin\u0117","administrativeDivision":"Marijampol\u0117s savivaldyb\u0117","countryCode":"LT","coordinates":{"latitude":54.58543,"longitude":23.43869}},{"code":"barciai","name":"Bar\u010diai","administrativeDivision":"Lazdij\u0173 rajono savivaldyb\u0117","countryCode":"LT","coordinates":{"latitude":54.0635,"longitude":23.7281}},{"code":"barciai-2","name":"Bar\u010diai","administrativeDivision":"Var\u0117nos rajono savivaldyb\u0117","countryCode":"LT","coordinates":{"latitude":54.1854,"longitude":24.6683}},{"code":"barciai-3","name":"Bar\u010diai","administrativeDivision":"Lazdij\u0173 rajono savivaldyb\u0117","countryCode":"LT","coordinates":{"latitude":54.2911,"longitude":23.6528}},{"code":"bardauskai","name":"Bardauskai","administrativeDivision":"Vilkavi\u0161kio rajono savivaldyb\u0117","countryCode":"LT","coordinates":{"latitude":54.58138,"longitude":23.11867}},{"code":"bardenai","name":"Bard\u0117nai","administrativeDivision":"Pag\u0117gi\u0173 savivaldyb\u0117","countryCode":"LT","coordinates":{"latitude":55.0989,"longitude":22.0155}},{"code":"bardinai","name":"Bardinai","administrativeDivision":"Pag\u0117gi\u0173 savivaldyb\u0117","countryCode":"LT","coordinates":{"latitude":55.09888,"longitude":22.01551}},{"code":"bardiskiai","name":"Bardi\u0161kiai","administrativeDivision":"Pakruojo rajono savivaldyb\u0117","countryCode":"LT","coordinates":{"latitude":56.21289,"longitude":24.01357}},{"code":"bariunai","name":"Bari\u016bnai","administrativeDivision":"Joni\u0161kio rajono savivaldyb\u0117","countryCode":"LT","coordinates":{"latitude":56.25014,"longitude":23.67125}},{"code":"barklainiai-i","name":"Barklainiai I","administrativeDivision":"Panev\u0117\u017eio rajono savivaldyb\u0117","countryCode":"LT","coordinates":{"latitude":55.57724,"longitude":24.33963}},{"code":"barskunai","name":"Barsk\u016bnai","administrativeDivision":"\u0160irvint\u0173 rajono savivaldyb\u0117","countryCode":"LT","coordinates":{"latitude":54.91834,"longitude":25.1242}},{"code":"barstyciai","name":"Barsty\u010diai","administrativeDivision":"Skuodo rajono savivaldyb\u0117","countryCode":"LT","coordinates":{"latitude":56.16125,"longitude":21.87022}},{"code":"bartkuskis","name":"Bartku\u0161kis","administrativeDivision":"\u0160irvint\u0173 rajono savivaldyb\u0117","countryCode":"LT","coordinates":{"latitude":54.94146,"longitude":24.94171}},{"code":"bartninkai","name":"Bartninkai","administrativeDivision":"Vilkavi\u0161kio rajono savivaldyb\u0117","countryCode":"LT","coordinates":{"latitude":54.50309,"longitude":23.02718}},{"code":"bartoniai","name":"Bartoniai","administrativeDivision":"Jonavos rajono savivaldyb\u0117","countryCode":"LT","coordinates":{"latitude":55.05065,"longitude":24.17337}},{"code":"barzdai","name":"Barzdai","administrativeDivision":"\u0160aki\u0173 rajono savivaldyb\u0117","countryCode":"LT","coordinates":{"latitude":54.78134,"longitude":23.19694}},{"code":"barzdziai","name":"Barzd\u017eiai","administrativeDivision":"Kretingos rajono savivaldyb\u0117","countryCode":"LT","coordinates":{"latitude":56.03002,"longitude":21.53207}},{"code":"batakiai","name":"Batakiai","administrativeDivision":"Taurag\u0117s rajono savivaldyb\u0117","countryCode":"LT","coordinates":{"latitude":55.35118,"longitude":22.51472}},{"code":"bategala","name":"Bat\u0117gala","administrativeDivision":"Jonavos rajono savivaldyb\u0117","countryCode":"LT","coordinates":{"latitude":55.04094,"longitude":24.10919}},{"code":"baubliai","name":"Baubliai","administrativeDivision":"Kretingos rajono savivaldyb\u0117","countryCode":"LT","coordinates":{"latitude":55.83175,"longitude":21.40549}},{"code":"baukstininkai","name":"Bauk\u0161tininkai","administrativeDivision":"Klaip\u0117dos rajono savivaldyb\u0117","countryCode":"LT","coordinates":{"latitude":55.7588,"longitude":21.2672}},{"code":"bazilionai","name":"Bazilionai","administrativeDivision":"\u0160iauli\u0173 rajono savivaldyb\u0117","countryCode":"LT","coordinates":{"latitude":55.79546,"longitude":23.14146}},{"code":"bazorai","name":"Bazorai","administrativeDivision":"Alytaus rajono savivaldyb\u0117","countryCode":"LT","coordinates":{"latitude":54.4338,"longitude":24.1736}},{"code":"bebrininkai","name":"Bebrininkai","administrativeDivision":"Vilkavi\u0161kio rajono savivaldyb\u0117","countryCode":"LT","coordinates":{"latitude":54.69461,"longitude":23.29383}},{"code":"bebruliske","name":"Bebruli\u0161k\u0117","administrativeDivision":"Kazl\u0173 R\u016bdos savivaldyb\u0117","countryCode":"LT","coordinates":{"latitude":54.70197,"longitude":23.45104}},{"code":"beciunai","name":"B\u0117\u010di\u016bnai","administrativeDivision":"Ignalinos rajono savivaldyb\u0117","countryCode":"LT","coordinates":{"latitude":55.31692,"longitude":26.18313}},{"code":"beinaiciai","name":"Beinai\u010diai","administrativeDivision":"K\u0117daini\u0173 rajono savivaldyb\u0117","countryCode":"LT","coordinates":{"latitude":55.2347,"longitude":24.1087}},{"code":"beinorava","name":"Beinorava","administrativeDivision":"Radvili\u0161kio rajono savivaldyb\u0117","countryCode":"LT","coordinates":{"latitude":55.73734,"longitude":23.99353}},{"code":"beizionys","name":"Bei\u017eionys","administrativeDivision":"Elektr\u0117n\u0173 savivaldyb\u0117","countryCode":"LT","coordinates":{"latitude":54.6827,"longitude":24.4846}},{"code":"bekupe","name":"Bekup\u0117","administrativeDivision":"Mol\u0117t\u0173 rajono savivaldyb\u0117","countryCode":"LT","coordinates":{"latitude":55.11137,"longitude":25.21195}},{"code":"beloniskes","name":"Beloni\u0161k\u0117s","administrativeDivision":"Kai\u0161iadori\u0173 rajono savivaldyb\u0117","countryCode":"LT","coordinates":{"latitude":54.93272,"longitude":24.46674}},{"code":"bendoriai","name":"Bendoriai","administrativeDivision":"Vilniaus rajono savivaldyb\u0117","countryCode":"LT","coordinates":{"latitude":54.79777,"longitude":25.21078}},{"code":"bendres","name":"Bendr\u0117s","administrativeDivision":"Alytaus rajono savivaldyb\u0117","countryCode":"LT","coordinates":{"latitude":54.3415,"longitude":23.9088}},{"code":"benininkai","name":"Benininkai","administrativeDivision":"Pag\u0117gi\u0173 savivaldyb\u0117","countryCode":"LT","coordinates":{"latitude":55.13991,"longitude":21.92041}},{"code":"berciunai","name":"Ber\u010di\u016bnai","administrativeDivision":"Panev\u0117\u017eio rajono savivaldyb\u0117","countryCode":"LT","coordinates":{"latitude":55.7374,"longitude":24.2297}},{"code":"berkinenai","name":"Berkin\u0117nai","administrativeDivision":"Tel\u0161i\u0173 rajono savivaldyb\u0117","countryCode":"LT","coordinates":{"latitude":55.96456,"longitude":22.20473}},{"code":"bernatoniai","name":"Bernatoniai","administrativeDivision":"Panev\u0117\u017eio rajono savivaldyb\u0117","countryCode":"LT","coordinates":{"latitude":55.77887,"longitude":24.29049}},{"code":"bernatoniai-2","name":"Bernatoniai","administrativeDivision":"Kauno rajono savivaldyb\u0117","countryCode":"LT","coordinates":{"latitude":54.96796,"longitude":23.7938}},{"code":"bernotai","name":"Bernotai","administrativeDivision":"Ignalinos rajono savivaldyb\u0117","countryCode":"LT","coordinates":{"latitude":55.28632,"longitude":26.46254}},{"code":"bertauciai","name":"Bertau\u010diai","administrativeDivision":"Joni\u0161kio rajono savivaldyb\u0117","countryCode":"LT","coordinates":{"latitude":56.28282,"longitude":23.50279}},{"code":"berteskiai","name":"Berte\u0161kiai","administrativeDivision":"Raseini\u0173 rajono savivaldyb\u0117","countryCode":"LT","coordinates":{"latitude":55.39013,"longitude":23.3364}},{"code":"bertuziai","name":"Bertu\u017eiai","administrativeDivision":"\u0160iauli\u0173 rajono savivaldyb\u0117","countryCode":"LT","coordinates":{"latitude":55.91517,"longitude":23.3981}},{"code":"berzai","name":"Ber\u017eai","administrativeDivision":"K\u0117daini\u0173 rajono savivaldyb\u0117","countryCode":"LT","coordinates":{"latitude":55.4013,"longitude":23.8983}},{"code":"berzenai","name":"Ber\u017e\u0117nai","administrativeDivision":"Joni\u0161kio rajono savivaldyb\u0117","countryCode":"LT","coordinates":{"latitude":56.14752,"longitude":23.33069}},{"code":"berzininkai","name":"Ber\u017eininkai","administrativeDivision":"Joni\u0161kio rajono savivaldyb\u0117","countryCode":"LT","coordinates":{"latitude":56.22298,"longitude":23.64621}},{"code":"berziskes","name":"Ber\u017ei\u0161k\u0117s","administrativeDivision":"Vilniaus rajono savivaldyb\u0117","countryCode":"LT","coordinates":{"latitude":54.51045,"longitude":25.28357}},{"code":"berzyne","name":"Ber\u017eyn\u0117","administrativeDivision":"\u0160iauli\u0173 rajono savivaldyb\u0117","countryCode":"LT","coordinates":{"latitude":55.97652,"longitude":23.12164}},{"code":"betygala","name":"Betygala","administrativeDivision":"Raseini\u0173 rajono savivaldyb\u0117","countryCode":"LT","coordinates":{"latitude":55.36208,"longitude":23.36688}},{"code":"bezdonys","name":"Bezdonys","administrativeDivision":"Vilniaus rajono savivaldyb\u0117","countryCode":"LT","coordinates":{"latitude":54.80318,"longitude":25.51875}},{"code":"bijotai","name":"Bijotai","administrativeDivision":"\u0160ilal\u0117s rajono savivaldyb\u0117","countryCode":"LT","coordinates":{"latitude":55.4672,"longitude":22.57764}},{"code":"bijunai","name":"Bij\u016bnai","administrativeDivision":"Trak\u0173 rajono savivaldyb\u0117","countryCode":"LT","coordinates":{"latitude":54.61194,"longitude":24.6577}},{"code":"bijunai-2","name":"Bij\u016bnai","administrativeDivision":"Kauno rajono savivaldyb\u0117","countryCode":"LT","coordinates":{"latitude":54.82467,"longitude":23.79178}},{"code":"bijutiskis","name":"Bijuti\u0161kis","administrativeDivision":"Mol\u0117t\u0173 rajono savivaldyb\u0117","countryCode":"LT","coordinates":{"latitude":55.1168,"longitude":25.39719}},{"code":"bikavenai","name":"Bikav\u0117nai","administrativeDivision":"\u0160ilut\u0117s rajono savivaldyb\u0117","countryCode":"LT","coordinates":{"latitude":55.40572,"longitude":21.99496}},{"code":"biliakiemis","name":"Biliakiemis","administrativeDivision":"Utenos rajono savivaldyb\u0117","countryCode":"LT","coordinates":{"latitude":55.46234,"longitude":25.68129}},{"code":"bilioniai","name":"Bilioniai","administrativeDivision":"\u0160ilal\u0117s rajono savivaldyb\u0117","countryCode":"LT","coordinates":{"latitude":55.5957,"longitude":22.30838}},{"code":"biliunai","name":"Bili\u016bnai","administrativeDivision":"Kupi\u0161kio rajono savivaldyb\u0117","countryCode":"LT","coordinates":{"latitude":55.90374,"longitude":25.13342}},{"code":"birsciai","name":"Birs\u010diai","administrativeDivision":"Lazdij\u0173 rajono savivaldyb\u0117","countryCode":"LT","coordinates":{"latitude":54.38131,"longitude":23.54715}},{"code":"birstonas","name":"Bir\u0161tonas","administrativeDivision":"Bir\u0161tono savivaldyb\u0117","countryCode":"LT","coordinates":{"latitude":54.60435,"longitude":24.03351}},{"code":"biruliskes","name":"Biruli\u0161k\u0117s","administrativeDivision":"Kauno rajono savivaldyb\u0117","countryCode":"LT","coordinates":{"latitude":54.93657,"longitude":23.9945}},{"code":"birzai","name":"Bir\u017eai","administrativeDivision":"Bir\u017e\u0173 rajono savivaldyb\u0117","countryCode":"LT","coordinates":{"latitude":56.20199,"longitude":24.75596}},{"code":"birzu-laukas","name":"Bir\u017e\u0173 Laukas","administrativeDivision":"\u0160ilal\u0117s rajono savivaldyb\u0117","countryCode":"LT","coordinates":{"latitude":55.47233,"longitude":22.24422}},{"code":"birzuvenai","name":"Bir\u017euv\u0117nai","administrativeDivision":"Tel\u0161i\u0173 rajono savivaldyb\u0117","countryCode":"LT","coordinates":{"latitude":55.89419,"longitude":22.46267}},{"code":"bizieriai","name":"Bizieriai","administrativeDivision":"\u0160aki\u0173 rajono savivaldyb\u0117","countryCode":"LT","coordinates":{"latitude":54.99602,"longitude":23.14589}},{"code":"blauzdziunai","name":"Blauzd\u017ei\u016bnai","administrativeDivision":"Joni\u0161kio rajono savivaldyb\u0117","countryCode":"LT","coordinates":{"latitude":56.31654,"longitude":23.91264}},{"code":"blinstrubiskiai","name":"Blinstrubi\u0161kiai","administrativeDivision":"Raseini\u0173 rajono savivaldyb\u0117","countryCode":"LT","coordinates":{"latitude":55.38862,"longitude":22.92696}},{"code":"bliudziai","name":"Bli\u016bd\u017eiai","administrativeDivision":"Raseini\u0173 rajono savivaldyb\u0117","countryCode":"LT","coordinates":{"latitude":55.2665,"longitude":23.02992}},{"code":"bliuviskiai","name":"Bliuvi\u0161kiai","administrativeDivision":"\u0160aki\u0173 rajono savivaldyb\u0117","countryCode":"LT","coordinates":{"latitude":54.841,"longitude":23.21123}},{"code":"bogdoniske","name":"Bogdoni\u0161k\u0117","administrativeDivision":"Zaras\u0173 rajono savivaldyb\u0117","countryCode":"LT","coordinates":{"latitude":55.69057,"longitude":26.47039}},{"code":"bokstai","name":"Bok\u0161tai","administrativeDivision":"\u0160ilal\u0117s rajono savivaldyb\u0117","countryCode":"LT","coordinates":{"latitude":55.53181,"longitude":22.09066}},{"code":"bokstai-2","name":"Bok\u0161tai","administrativeDivision":"K\u0117daini\u0173 rajono savivaldyb\u0117","countryCode":"LT","coordinates":{"latitude":55.41679,"longitude":23.84124}},{"code":"boniskiai","name":"Boni\u0161kiai","administrativeDivision":"Kauno rajono savivaldyb\u0117","countryCode":"LT","coordinates":{"latitude":55.07705,"longitude":24.02706}},{"code":"bratoniskes","name":"Bratoni\u0161k\u0117s","administrativeDivision":"Vilniaus rajono savivaldyb\u0117","countryCode":"LT","coordinates":{"latitude":54.85268,"longitude":25.37524}},{"code":"brazuole","name":"Bra\u017euol\u0117","administrativeDivision":"Trak\u0173 rajono savivaldyb\u0117","countryCode":"LT","coordinates":{"latitude":54.68199,"longitude":24.90666}},{"code":"bridai","name":"Bridai","administrativeDivision":"\u0160iauli\u0173 rajono savivaldyb\u0117","countryCode":"LT","coordinates":{"latitude":56.01068,"longitude":23.34824}},{"code":"brinkiskes","name":"Brinki\u0161k\u0117s","administrativeDivision":"Vilniaus rajono savivaldyb\u0117","countryCode":"LT","coordinates":{"latitude":54.80243,"longitude":25.0854}},{"code":"broziai","name":"Bro\u017eiai","administrativeDivision":"Klaip\u0117dos rajono savivaldyb\u0117","countryCode":"LT","coordinates":{"latitude":55.6487,"longitude":21.5605}},{"code":"brukai","name":"Brukai","administrativeDivision":"Kalvarijos savivaldyb\u0117","countryCode":"LT","coordinates":{"latitude":54.40442,"longitude":23.32345}},{"code":"bubenai","name":"Bub\u0117nai","administrativeDivision":"Rietavo savivaldyb\u0117","countryCode":"LT","coordinates":{"latitude":55.78165,"longitude":21.90594}},{"code":"bubiai","name":"Bubiai","administrativeDivision":"\u0160iauli\u0173 rajono savivaldyb\u0117","countryCode":"LT","coordinates":{"latitude":55.8574,"longitude":23.14575}},{"code":"bubiai-2","name":"Bubiai","administrativeDivision":"Kauno rajono savivaldyb\u0117","countryCode":"LT","coordinates":{"latitude":54.99126,"longitude":23.63248}},{"code":"bubleliai","name":"B\u016bbleliai","administrativeDivision":"\u0160aki\u0173 rajono savivaldyb\u0117","countryCode":"LT","coordinates":{"latitude":54.8084,"longitude":22.91221}},{"code":"bubliske","name":"B\u016bbli\u0161k\u0117","administrativeDivision":"Pag\u0117gi\u0173 savivaldyb\u0117","countryCode":"LT","coordinates":{"latitude":55.12121,"longitude":21.92695}},{"code":"bubos","name":"Bubos","administrativeDivision":"Vilniaus rajono savivaldyb\u0117","countryCode":"LT","coordinates":{"latitude":54.77147,"longitude":25.02049}},{"code":"buciunai","name":"Bu\u010di\u016bnai","administrativeDivision":"Joni\u0161kio rajono savivaldyb\u0117","countryCode":"LT","coordinates":{"latitude":56.21001,"longitude":23.78445}},{"code":"buciunai-2","name":"Bu\u010di\u016bnai","administrativeDivision":"Bir\u0161tono savivaldyb\u0117","countryCode":"LT","coordinates":{"latitude":54.56757,"longitude":24.09571}},{"code":"buckunai","name":"Buck\u016bnai","administrativeDivision":"Lazdij\u0173 rajono savivaldyb\u0117","countryCode":"LT","coordinates":{"latitude":54.32346,"longitude":23.73616}},{"code":"buda","name":"B\u016bda","administrativeDivision":"Kazl\u0173 R\u016bdos savivaldyb\u0117","countryCode":"LT","coordinates":{"latitude":54.79897,"longitude":23.33197}},{"code":"budraiciai","name":"Budrai\u010diai","administrativeDivision":"Kelm\u0117s rajono savivaldyb\u0117","countryCode":"LT","coordinates":{"latitude":55.62254,"longitude":23.22593}},{"code":"budriai","name":"Budriai","administrativeDivision":"Kretingos rajono savivaldyb\u0117","countryCode":"LT","coordinates":{"latitude":55.87651,"longitude":21.45221}},{"code":"budriai-2","name":"Budriai","administrativeDivision":"Kauno rajono savivaldyb\u0117","countryCode":"LT","coordinates":{"latitude":54.82401,"longitude":23.8853}},{"code":"budrikai","name":"Budrikai","administrativeDivision":"Klaip\u0117dos rajono savivaldyb\u0117","countryCode":"LT","coordinates":{"latitude":55.6898,"longitude":21.2261}},{"code":"budrikiai","name":"Budrikiai","administrativeDivision":"Rietavo savivaldyb\u0117","countryCode":"LT","coordinates":{"latitude":55.75367,"longitude":21.91463}},{"code":"budvieciai","name":"B\u016bdvie\u010diai","administrativeDivision":"Vilkavi\u0161kio rajono savivaldyb\u0117","countryCode":"LT","coordinates":{"latitude":54.54344,"longitude":22.87951}},{"code":"budvietis","name":"B\u016bdvietis","administrativeDivision":"Lazdij\u0173 rajono savivaldyb\u0117","countryCode":"LT","coordinates":{"latitude":54.2867,"longitude":23.3285}},{"code":"bugeniai","name":"Bugeniai","administrativeDivision":"Ma\u017eeiki\u0173 rajono savivaldyb\u0117","countryCode":"LT","coordinates":{"latitude":56.31203,"longitude":22.20061}},{"code":"buivydiskes","name":"Buivydi\u0161k\u0117s","administrativeDivision":"Vilniaus rajono savivaldyb\u0117","countryCode":"LT","coordinates":{"latitude":54.71699,"longitude":25.19597}},{"code":"buivydziai-i","name":"Buivyd\u017eiai I","administrativeDivision":"Vilniaus rajono savivaldyb\u0117","countryCode":"LT","coordinates":{"latitude":54.8364,"longitude":25.73386}},{"code":"bukiskis","name":"Buki\u0161kis","administrativeDivision":"Vilniaus rajono savivaldyb\u0117","countryCode":"LT","coordinates":{"latitude":54.76065,"longitude":25.209}},{"code":"buknaiciai","name":"Buknai\u010diai","administrativeDivision":"Ma\u017eeiki\u0173 rajono savivaldyb\u0117","countryCode":"LT","coordinates":{"latitude":56.3906,"longitude":22.36458}},{"code":"bukonys","name":"Bukonys","administrativeDivision":"Jonavos rajono savivaldyb\u0117","countryCode":"LT","coordinates":{"latitude":55.22707,"longitude":24.36596}},{"code":"bukta","name":"Bukta","administrativeDivision":"Marijampol\u0117s savivaldyb\u0117","countryCode":"LT","coordinates":{"latitude":54.45473,"longitude":23.39492}},{"code":"buktiskiai","name":"Bukti\u0161kiai","administrativeDivision":"\u0160aki\u0173 rajono savivaldyb\u0117","countryCode":"LT","coordinates":{"latitude":54.77878,"longitude":23.24105}},{"code":"buozenai","name":"Buo\u017e\u0117nai","administrativeDivision":"Tel\u0161i\u0173 rajono savivaldyb\u0117","countryCode":"LT","coordinates":{"latitude":56.02922,"longitude":22.19609}},{"code":"burbiskis","name":"Burbi\u0161kis","administrativeDivision":"Anyk\u0161\u010di\u0173 rajono savivaldyb\u0117","countryCode":"LT","coordinates":{"latitude":55.50525,"longitude":25.22112}},{"code":"burgaiciai","name":"Burgai\u010diai","administrativeDivision":"\u0160aki\u0173 rajono savivaldyb\u0117","countryCode":"LT","coordinates":{"latitude":55.03947,"longitude":22.63603}},{"code":"burveliai","name":"Burveliai","administrativeDivision":"Panev\u0117\u017eio rajono savivaldyb\u0117","countryCode":"LT","coordinates":{"latitude":55.47934,"longitude":24.06979}},{"code":"butenai","name":"But\u0117nai","administrativeDivision":"Radvili\u0161kio rajono savivaldyb\u0117","countryCode":"LT","coordinates":{"latitude":55.71777,"longitude":23.84851}},{"code":"butenai-2","name":"But\u0117nai","administrativeDivision":"Anyk\u0161\u010di\u0173 rajono savivaldyb\u0117","countryCode":"LT","coordinates":{"latitude":55.63461,"longitude":25.39257}},{"code":"butkeliai","name":"Butkeliai","administrativeDivision":"Taurag\u0117s rajono savivaldyb\u0117","countryCode":"LT","coordinates":{"latitude":55.24578,"longitude":22.26852}},{"code":"butkiske","name":"Butki\u0161k\u0117","administrativeDivision":"Raseini\u0173 rajono savivaldyb\u0117","countryCode":"LT","coordinates":{"latitude":55.2344,"longitude":23.49038}},{"code":"butkiske-2","name":"Butki\u0161k\u0117","administrativeDivision":"Kelm\u0117s rajono savivaldyb\u0117","countryCode":"LT","coordinates":{"latitude":55.5999,"longitude":22.77783}},{"code":"butniunai","name":"Butni\u016bnai","administrativeDivision":"Bir\u017e\u0173 rajono savivaldyb\u0117","countryCode":"LT","coordinates":{"latitude":56.11711,"longitude":24.71569}},{"code":"butrimiskiai","name":"Butrimi\u0161kiai","administrativeDivision":"Alytaus rajono savivaldyb\u0117","countryCode":"LT","coordinates":{"latitude":54.43,"longitude":23.9542}},{"code":"butrimonys","name":"Butrimonys","administrativeDivision":"Alytaus rajono savivaldyb\u0117","countryCode":"LT","coordinates":{"latitude":54.50216,"longitude":24.25233}},{"code":"butrimonys-2","name":"Butrimonys","administrativeDivision":"\u0160al\u010dinink\u0173 rajono savivaldyb\u0117","countryCode":"LT","coordinates":{"latitude":54.25021,"longitude":25.17068}},{"code":"byciai","name":"By\u010diai","administrativeDivision":"Kupi\u0161kio rajono savivaldyb\u0117","countryCode":"LT","coordinates":{"latitude":55.82819,"longitude":24.9415}},{"code":"bytlaukis","name":"Bytlaukis","administrativeDivision":"\u0160ilal\u0117s rajono savivaldyb\u0117","countryCode":"LT","coordinates":{"latitude":55.5391,"longitude":22.32667}},{"code":"cedasai","name":"\u010cedasai","administrativeDivision":"Roki\u0161kio rajono savivaldyb\u0117","countryCode":"LT","coordinates":{"latitude":56.10057,"longitude":25.416}},{"code":"ceikiniai","name":"Ceikiniai","administrativeDivision":"Ignalinos rajono savivaldyb\u0117","countryCode":"LT","coordinates":{"latitude":55.25505,"longitude":26.26345}},{"code":"cekiske","name":"\u010ceki\u0161k\u0117","administrativeDivision":"Kauno rajono savivaldyb\u0117","countryCode":"LT","coordinates":{"latitude":55.15728,"longitude":23.52083}},{"code":"cekoniskes","name":"\u010cekoni\u0161k\u0117s","administrativeDivision":"Vilniaus rajono savivaldyb\u0117","countryCode":"LT","coordinates":{"latitude":54.73615,"longitude":25.08085}},{"code":"cekonys","name":"\u010cekonys","administrativeDivision":"Anyk\u0161\u010di\u0173 rajono savivaldyb\u0117","countryCode":"LT","coordinates":{"latitude":55.57995,"longitude":25.23566}},{"code":"cicinai","name":"\u010ci\u010dinai","administrativeDivision":"Jonavos rajono savivaldyb\u0117","countryCode":"LT","coordinates":{"latitude":55.07557,"longitude":24.18073}},{"code":"ciobiskis","name":"\u010ciobi\u0161kis","administrativeDivision":"\u0160irvint\u0173 rajono savivaldyb\u0117","countryCode":"LT","coordinates":{"latitude":54.9541,"longitude":24.6599}},{"code":"cipariai","name":"Cipariai","administrativeDivision":"\u0160ilut\u0117s rajono savivaldyb\u0117","countryCode":"LT","coordinates":{"latitude":55.37295,"longitude":21.70449}},{"code":"cirkliskis","name":"Cirkli\u0161kis","administrativeDivision":"\u0160ven\u010dioni\u0173 rajono savivaldyb\u0117","countryCode":"LT","coordinates":{"latitude":55.1243,"longitude":26.13592}},{"code":"ciudiskiai","name":"\u010ciudi\u0161kiai","administrativeDivision":"Prien\u0173 rajono savivaldyb\u0117","countryCode":"LT","coordinates":{"latitude":54.69199,"longitude":23.89895}},{"code":"ciurliai","name":"\u010ciurliai","administrativeDivision":"Prien\u0173 rajono savivaldyb\u0117","countryCode":"LT","coordinates":{"latitude":54.75841,"longitude":23.74933}},{"code":"ciurlionys-i","name":"\u010ciurlionys I","administrativeDivision":"Alytaus rajono savivaldyb\u0117","countryCode":"LT","coordinates":{"latitude":54.44179,"longitude":23.74591}},{"code":"ciuziakampis","name":"\u010ciu\u017eiakampis","administrativeDivision":"\u0160al\u010dinink\u0173 rajono savivaldyb\u0117","countryCode":"LT","coordinates":{"latitude":54.32897,"longitude":25.31624}},{"code":"ciziunai","name":"\u010ci\u017ei\u016bnai","administrativeDivision":"Trak\u0173 rajono savivaldyb\u0117","countryCode":"LT","coordinates":{"latitude":54.59758,"longitude":24.56443}},{"code":"ciziunai-2","name":"\u010ci\u017ei\u016bnai","administrativeDivision":"Var\u0117nos rajono savivaldyb\u0117","countryCode":"LT","coordinates":{"latitude":54.3677,"longitude":24.8487}},{"code":"cyckai","name":"\u010cy\u010dkai","administrativeDivision":"Vilkavi\u0161kio rajono savivaldyb\u0117","countryCode":"LT","coordinates":{"latitude":54.63145,"longitude":22.9493}},{"code":"dabikine","name":"Dabikin\u0117","administrativeDivision":"Akmen\u0117s rajono savivaldyb\u0117","countryCode":"LT","coordinates":{"latitude":56.24829,"longitude":22.79438}},{"code":"dabuziai-i","name":"Dabu\u017eiai I","administrativeDivision":"Anyk\u0161\u010di\u0173 rajono savivaldyb\u0117","countryCode":"LT","coordinates":{"latitude":55.51282,"longitude":24.95525}},{"code":"dacijonai","name":"Dacijonai","administrativeDivision":"Taurag\u0117s rajono savivaldyb\u0117","countryCode":"LT","coordinates":{"latitude":55.22258,"longitude":22.28988}},{"code":"dagiai","name":"Dagiai","administrativeDivision":"Ma\u017eeiki\u0173 rajono savivaldyb\u0117","countryCode":"LT","coordinates":{"latitude":56.16691,"longitude":21.99758}},{"code":"dagiai-2","name":"Dagiai","administrativeDivision":"Pasvalio rajono savivaldyb\u0117","countryCode":"LT","coordinates":{"latitude":56.29144,"longitude":24.32534}},{"code":"dagiliskis","name":"Dagili\u0161kis","administrativeDivision":"Pasvalio rajono savivaldyb\u0117","countryCode":"LT","coordinates":{"latitude":56.0086,"longitude":24.35618}},{"code":"dailides","name":"Dailid\u0117s","administrativeDivision":"\u0160al\u010dinink\u0173 rajono savivaldyb\u0117","countryCode":"LT","coordinates":{"latitude":54.18905,"longitude":25.10575}},{"code":"dailuciai","name":"Dailu\u010diai","administrativeDivision":"Vilkavi\u0161kio rajono savivaldyb\u0117","countryCode":"LT","coordinates":{"latitude":54.62214,"longitude":22.88675}},{"code":"dainava","name":"Dainava","administrativeDivision":"Ukmerg\u0117s rajono savivaldyb\u0117","countryCode":"LT","coordinates":{"latitude":55.20058,"longitude":24.65207}},{"code":"dainava-2","name":"Dainava","administrativeDivision":"\u0160al\u010dinink\u0173 rajono savivaldyb\u0117","countryCode":"LT","coordinates":{"latitude":54.24937,"longitude":24.9676}},{"code":"dainava-3","name":"Dainava","administrativeDivision":"Kai\u0161iadori\u0173 rajono savivaldyb\u0117","countryCode":"LT","coordinates":{"latitude":54.87099,"longitude":24.69485}},{"code":"dainava-4","name":"Dainava","administrativeDivision":"\u0160al\u010dinink\u0173 rajono savivaldyb\u0117","countryCode":"LT","coordinates":{"latitude":54.41578,"longitude":25.27736}},{"code":"dainiai","name":"Dainiai","administrativeDivision":"Jurbarko rajono savivaldyb\u0117","countryCode":"LT","coordinates":{"latitude":55.10383,"longitude":22.73832}},{"code":"dambrava","name":"Dambrava","administrativeDivision":"Prien\u0173 rajono savivaldyb\u0117","countryCode":"LT","coordinates":{"latitude":54.70811,"longitude":23.89243}},{"code":"daniunai","name":"Dani\u016bnai","administrativeDivision":"Panev\u0117\u017eio rajono savivaldyb\u0117","countryCode":"LT","coordinates":{"latitude":55.46427,"longitude":24.37918}},{"code":"dapkiskiai","name":"Dapki\u0161kiai","administrativeDivision":"Taurag\u0117s rajono savivaldyb\u0117","countryCode":"LT","coordinates":{"latitude":55.27999,"longitude":22.24098}},{"code":"dapkuniskiai","name":"Dapk\u016bni\u0161kiai","administrativeDivision":"Mol\u0117t\u0173 rajono savivaldyb\u0117","countryCode":"LT","coordinates":{"latitude":55.34959,"longitude":25.11926}},{"code":"darbenai","name":"Darb\u0117nai","administrativeDivision":"Kretingos rajono savivaldyb\u0117","countryCode":"LT","coordinates":{"latitude":56.0232,"longitude":21.254}},{"code":"darginiai","name":"Darginiai","administrativeDivision":"Joni\u0161kio rajono savivaldyb\u0117","countryCode":"LT","coordinates":{"latitude":56.24628,"longitude":23.82361}},{"code":"darguziai","name":"Dargu\u017eiai","administrativeDivision":"Var\u0117nos rajono savivaldyb\u0117","countryCode":"LT","coordinates":{"latitude":54.38774,"longitude":24.88576}},{"code":"darsuniskis","name":"Dars\u016bni\u0161kis","administrativeDivision":"Kai\u0161iadori\u0173 rajono savivaldyb\u0117","countryCode":"LT","coordinates":{"latitude":54.73738,"longitude":24.11945}},{"code":"darzininkai","name":"Dar\u017eininkai","administrativeDivision":"Vilniaus rajono savivaldyb\u0117","countryCode":"LT","coordinates":{"latitude":54.6322,"longitude":25.3656}},{"code":"darzininkai-2","name":"Dar\u017eininkai","administrativeDivision":"Vilkavi\u0161kio rajono savivaldyb\u0117","countryCode":"LT","coordinates":{"latitude":54.74946,"longitude":22.9122}},{"code":"daubariai","name":"Daubariai","administrativeDivision":"Ma\u017eeiki\u0173 rajono savivaldyb\u0117","countryCode":"LT","coordinates":{"latitude":56.28489,"longitude":22.31068}},{"code":"daubenai","name":"Daub\u0117nai","administrativeDivision":"Vilniaus rajono savivaldyb\u0117","countryCode":"LT","coordinates":{"latitude":54.56773,"longitude":25.44907}},{"code":"daubiskiai","name":"Daubi\u0161kiai","administrativeDivision":"Akmen\u0117s rajono savivaldyb\u0117","countryCode":"LT","coordinates":{"latitude":56.14124,"longitude":22.7936}},{"code":"daugai","name":"Daugai","administrativeDivision":"Alytaus rajono savivaldyb\u0117","countryCode":"LT","coordinates":{"latitude":54.36012,"longitude":24.34515}},{"code":"daugailiai","name":"Daugailiai","administrativeDivision":"Utenos rajono savivaldyb\u0117","countryCode":"LT","coordinates":{"latitude":55.58828,"longitude":25.83045}},{"code":"daugedai","name":"Daug\u0117dai","administrativeDivision":"Rietavo savivaldyb\u0117","countryCode":"LT","coordinates":{"latitude":55.80545,"longitude":21.94194}},{"code":"daugelaiciai","name":"Daug\u0117lai\u010diai","administrativeDivision":"Radvili\u0161kio rajono savivaldyb\u0117","countryCode":"LT","coordinates":{"latitude":55.74501,"longitude":23.50039}},{"code":"daugeliskiai","name":"Daugeli\u0161kiai","administrativeDivision":"Kauno rajono savivaldyb\u0117","countryCode":"LT","coordinates":{"latitude":55.10491,"longitude":23.54711}},{"code":"daugidonys","name":"Daugidonys","administrativeDivision":"\u0160al\u010dinink\u0173 rajono savivaldyb\u0117","countryCode":"LT","coordinates":{"latitude":54.16083,"longitude":24.8839}},{"code":"dauginciai","name":"Daugin\u010diai","administrativeDivision":"Kretingos rajono savivaldyb\u0117","countryCode":"LT","coordinates":{"latitude":55.92759,"longitude":21.54223}},{"code":"daugirdai","name":"Daugirdai","administrativeDivision":"Marijampol\u0117s savivaldyb\u0117","countryCode":"LT","coordinates":{"latitude":54.49376,"longitude":23.7415}},{"code":"dauglaukis","name":"Dauglaukis","administrativeDivision":"Taurag\u0117s rajono savivaldyb\u0117","countryCode":"LT","coordinates":{"latitude":55.18543,"longitude":22.21901}},{"code":"daujenai","name":"Dauj\u0117nai","administrativeDivision":"Pasvalio rajono savivaldyb\u0117","countryCode":"LT","coordinates":{"latitude":55.97758,"longitude":24.51666}},{"code":"daujociai","name":"Daujo\u010diai","administrativeDivision":"Anyk\u0161\u010di\u0173 rajono savivaldyb\u0117","countryCode":"LT","coordinates":{"latitude":55.68938,"longitude":25.41531}},{"code":"daukantiskiai","name":"Daukanti\u0161kiai","administrativeDivision":"\u0160aki\u0173 rajono savivaldyb\u0117","countryCode":"LT","coordinates":{"latitude":55.06983,"longitude":22.98793}},{"code":"daukniunai","name":"Daukni\u016bnai","administrativeDivision":"Panev\u0117\u017eio rajono savivaldyb\u0117","countryCode":"LT","coordinates":{"latitude":55.76514,"longitude":24.22744}},{"code":"dauksaiciai","name":"Dauk\u0161ai\u010diai","administrativeDivision":"Klaip\u0117dos rajono savivaldyb\u0117","countryCode":"LT","coordinates":{"latitude":55.5687,"longitude":21.6471}},{"code":"dauksiai","name":"Dauk\u0161iai","administrativeDivision":"Skuodo rajono savivaldyb\u0117","countryCode":"LT","coordinates":{"latitude":56.18117,"longitude":21.48639}},{"code":"dauksiai-2","name":"Dauk\u0161iai","administrativeDivision":"Joni\u0161kio rajono savivaldyb\u0117","countryCode":"LT","coordinates":{"latitude":56.36445,"longitude":23.33843}},{"code":"dauksiai-3","name":"Dauk\u0161iai","administrativeDivision":"Marijampol\u0117s savivaldyb\u0117","countryCode":"LT","coordinates":{"latitude":54.50053,"longitude":23.58521}},{"code":"daunoriske","name":"Daunori\u0161k\u0117","administrativeDivision":"Joni\u0161kio rajono savivaldyb\u0117","countryCode":"LT","coordinates":{"latitude":56.31497,"longitude":23.55641}},{"code":"dauparai","name":"Dauparai","administrativeDivision":"Klaip\u0117dos rajono savivaldyb\u0117","countryCode":"LT","coordinates":{"latitude":55.7152,"longitude":21.3043}},{"code":"debeikiai","name":"Debeikiai","administrativeDivision":"Anyk\u0161\u010di\u0173 rajono savivaldyb\u0117","countryCode":"LT","coordinates":{"latitude":55.58114,"longitude":25.32519}},{"code":"dedeliskes","name":"D\u0117deli\u0161k\u0117s","administrativeDivision":"Trak\u0173 rajono savivaldyb\u0117","countryCode":"LT","coordinates":{"latitude":54.6796,"longitude":25.05048}},{"code":"degaiciai","name":"Degai\u010diai","administrativeDivision":"Tel\u0161i\u0173 rajono savivaldyb\u0117","countryCode":"LT","coordinates":{"latitude":55.99884,"longitude":22.29399}},{"code":"degesiai","name":"Deg\u0117siai","administrativeDivision":"Pakruojo rajono savivaldyb\u0117","countryCode":"LT","coordinates":{"latitude":56.1644,"longitude":24.1246}},{"code":"deglenai","name":"Degl\u0117nai","administrativeDivision":"Pasvalio rajono savivaldyb\u0117","countryCode":"LT","coordinates":{"latitude":55.92783,"longitude":24.12603}},{"code":"deguciai","name":"Degu\u010diai","administrativeDivision":"\u0160ilut\u0117s rajono savivaldyb\u0117","countryCode":"LT","coordinates":{"latitude":55.31615,"longitude":21.77138}},{"code":"deguciai-2","name":"Degu\u010diai","administrativeDivision":"Zaras\u0173 rajono savivaldyb\u0117","countryCode":"LT","coordinates":{"latitude":55.65915,"longitude":26.0554}},{"code":"deguciai-3","name":"Degu\u010diai","administrativeDivision":"Pakruojo rajono savivaldyb\u0117","countryCode":"LT","coordinates":{"latitude":55.9678,"longitude":23.58764}},{"code":"deguciai-4","name":"Degu\u010diai","administrativeDivision":"Vilkavi\u0161kio rajono savivaldyb\u0117","countryCode":"LT","coordinates":{"latitude":54.53172,"longitude":23.11984}},{"code":"degutine","name":"Degutin\u0117","administrativeDivision":"\u0160aki\u0173 rajono savivaldyb\u0117","countryCode":"LT","coordinates":{"latitude":54.81533,"longitude":23.11765}},{"code":"deltuva","name":"Deltuva","administrativeDivision":"Ukmerg\u0117s rajono savivaldyb\u0117","countryCode":"LT","coordinates":{"latitude":55.23852,"longitude":24.66915}},{"code":"dembava","name":"Dembava","administrativeDivision":"Panev\u0117\u017eio rajono savivaldyb\u0117","countryCode":"LT","coordinates":{"latitude":55.7326,"longitude":24.40963}},{"code":"dercekliai","name":"Dercekliai","administrativeDivision":"Klaip\u0117dos rajono savivaldyb\u0117","countryCode":"LT","coordinates":{"latitude":55.57661,"longitude":21.25652}},{"code":"devynduoniai","name":"Devynduoniai","administrativeDivision":"K\u0117daini\u0173 rajono savivaldyb\u0117","countryCode":"LT","coordinates":{"latitude":55.5324,"longitude":23.89236}},{"code":"didieji-bausiai","name":"Didieji Bau\u0161iai","administrativeDivision":"\u0160al\u010dinink\u0173 rajono savivaldyb\u0117","countryCode":"LT","coordinates":{"latitude":54.32363,"longitude":25.42098}},{"code":"didieji-gulbinai","name":"Didieji Gulbinai","administrativeDivision":"Vilniaus rajono savivaldyb\u0117","countryCode":"LT","coordinates":{"latitude":54.79913,"longitude":25.28538}},{"code":"didieji-lygainiai","name":"Didieji Lygainiai","administrativeDivision":"Vilniaus rajono savivaldyb\u0117","countryCode":"LT","coordinates":{"latitude":54.56577,"longitude":25.0693}},{"code":"didieji-rusupiai","name":"Didieji R\u016b\u0161upiai","administrativeDivision":"Skuodo rajono savivaldyb\u0117","countryCode":"LT","coordinates":{"latitude":56.28148,"longitude":21.59416}},{"code":"didieji-selviai","name":"Didieji \u0160elviai","administrativeDivision":"Vilkavi\u0161kio rajono savivaldyb\u0117","countryCode":"LT","coordinates":{"latitude":54.68518,"longitude":23.02597}},{"code":"didkiemis","name":"Didkiemis","administrativeDivision":"\u0160ilal\u0117s rajono savivaldyb\u0117","countryCode":"LT","coordinates":{"latitude":55.3701,"longitude":22.12527}},{"code":"didsode","name":"Didsod\u0117","administrativeDivision":"Roki\u0161kio rajono savivaldyb\u0117","countryCode":"LT","coordinates":{"latitude":56.08397,"longitude":25.56535}},{"code":"didvyciai","name":"Didvy\u010diai","administrativeDivision":"Plung\u0117s rajono savivaldyb\u0117","countryCode":"LT","coordinates":{"latitude":55.94815,"longitude":21.8163}},{"code":"didvyriai","name":"Didvyriai","administrativeDivision":"Kauno rajono savivaldyb\u0117","countryCode":"LT","coordinates":{"latitude":54.95668,"longitude":23.7573}},{"code":"didysis-palukstis","name":"Didysis Pal\u016bkstis","administrativeDivision":"Tel\u0161i\u0173 rajono savivaldyb\u0117","countryCode":"LT","coordinates":{"latitude":55.69208,"longitude":22.3472}},{"code":"didzialaukis","name":"Did\u017eialaukis","administrativeDivision":"Vilniaus rajono savivaldyb\u0117","countryCode":"LT","coordinates":{"latitude":54.51263,"longitude":25.22555}},{"code":"didziasalis","name":"Did\u017eiasalis","administrativeDivision":"Ignalinos rajono savivaldyb\u0117","countryCode":"LT","coordinates":{"latitude":55.3178,"longitude":26.66226}},{"code":"didziasalis-2","name":"Did\u017eiasalis","administrativeDivision":"Vilniaus rajono savivaldyb\u0117","countryCode":"LT","coordinates":{"latitude":54.64543,"longitude":25.40356}},{"code":"didzioji-riese","name":"Did\u017eioji Rie\u0161\u0117","administrativeDivision":"Vilniaus rajono savivaldyb\u0117","countryCode":"LT","coordinates":{"latitude":54.7942,"longitude":25.26786}},{"code":"didziosios-kabiskes","name":"Did\u017eiosios Kabi\u0161k\u0117s","administrativeDivision":"Vilniaus rajono savivaldyb\u0117","countryCode":"LT","coordinates":{"latitude":54.87333,"longitude":25.45398}},{"code":"didziosios-lapes","name":"Did\u017eiosios Lap\u0117s","administrativeDivision":"Kauno rajono savivaldyb\u0117","countryCode":"LT","coordinates":{"latitude":55.00713,"longitude":24.02163}},{"code":"didziosios-selos","name":"Did\u017eiosios S\u0117los","administrativeDivision":"\u0160al\u010dinink\u0173 rajono savivaldyb\u0117","countryCode":"LT","coordinates":{"latitude":54.34071,"longitude":25.24435}},{"code":"didziosios-zariskes","name":"Did\u017eiosios Zari\u0161k\u0117s","administrativeDivision":"Kazl\u0173 R\u016bdos savivaldyb\u0117","countryCode":"LT","coordinates":{"latitude":54.70693,"longitude":23.5377}},{"code":"didziosios-zubiskes","name":"Did\u017eiosios Zubi\u0161k\u0117s","administrativeDivision":"\u0160al\u010dinink\u0173 rajono savivaldyb\u0117","countryCode":"LT","coordinates":{"latitude":54.21789,"longitude":24.89752}},{"code":"didziuliai","name":"Did\u017eiuliai","administrativeDivision":"Raseini\u0173 rajono savivaldyb\u0117","countryCode":"LT","coordinates":{"latitude":55.28404,"longitude":23.40272}},{"code":"dieveniskes","name":"Dieveni\u0161k\u0117s","administrativeDivision":"\u0160al\u010dinink\u0173 rajono savivaldyb\u0117","countryCode":"LT","coordinates":{"latitude":54.19405,"longitude":25.62591}},{"code":"dievogala","name":"Dievogala","administrativeDivision":"Kauno rajono savivaldyb\u0117","countryCode":"LT","coordinates":{"latitude":54.92248,"longitude":23.65957}},{"code":"dievogala-2","name":"Dievogala","administrativeDivision":"Raseini\u0173 rajono savivaldyb\u0117","countryCode":"LT","coordinates":{"latitude":55.50477,"longitude":23.53368}},{"code":"dievogala-3","name":"Dievogala","administrativeDivision":"Kauno rajono savivaldyb\u0117","countryCode":"LT","coordinates":{"latitude":54.84961,"longitude":23.76561}},{"code":"diksiai","name":"Dik\u0161iai","administrativeDivision":"Kelm\u0117s rajono savivaldyb\u0117","countryCode":"LT","coordinates":{"latitude":55.61396,"longitude":22.94319}},{"code":"diliauskai","name":"Diliauskai","administrativeDivision":"Pasvalio rajono savivaldyb\u0117","countryCode":"LT","coordinates":{"latitude":56.07043,"longitude":24.44333}},{"code":"dimitriskes","name":"Dimitri\u0161k\u0117s","administrativeDivision":"Zaras\u0173 rajono savivaldyb\u0117","countryCode":"LT","coordinates":{"latitude":55.74453,"longitude":26.2664}},{"code":"dirkintai","name":"Dirkintai","administrativeDivision":"\u0160ilal\u0117s rajono savivaldyb\u0117","countryCode":"LT","coordinates":{"latitude":55.50569,"longitude":22.16785}},{"code":"dirvonenai","name":"Dirvon\u0117nai","administrativeDivision":"\u0160iauli\u0173 rajono savivaldyb\u0117","countryCode":"LT","coordinates":{"latitude":55.96278,"longitude":22.78749}},{"code":"dituva","name":"Dituva","administrativeDivision":"Klaip\u0117dos rajono savivaldyb\u0117","countryCode":"LT","coordinates":{"latitude":55.5952,"longitude":21.2893}},{"code":"dobromisle","name":"Dobromisl\u0117","administrativeDivision":"Vilniaus rajono savivaldyb\u0117","countryCode":"LT","coordinates":{"latitude":54.65624,"longitude":25.50071}},{"code":"domeikava","name":"Domeikava","administrativeDivision":"Kauno rajono savivaldyb\u0117","countryCode":"LT","coordinates":{"latitude":54.96787,"longitude":23.92398}},{"code":"dotnuva","name":"Dotnuva","administrativeDivision":"K\u0117daini\u0173 rajono savivaldyb\u0117","countryCode":"LT","coordinates":{"latitude":55.36584,"longitude":23.88796}},{"code":"dovainiai","name":"Dovainiai","administrativeDivision":"Plung\u0117s rajono savivaldyb\u0117","countryCode":"LT","coordinates":{"latitude":56.08644,"longitude":21.7888}},{"code":"dovainonys","name":"Dovainonys","administrativeDivision":"Kai\u0161iadori\u0173 rajono savivaldyb\u0117","countryCode":"LT","coordinates":{"latitude":54.82966,"longitude":24.24768}},{"code":"dovilai","name":"Dovilai","administrativeDivision":"Klaip\u0117dos rajono savivaldyb\u0117","countryCode":"LT","coordinates":{"latitude":55.67745,"longitude":21.36028}},{"code":"draseikiai","name":"Dr\u0105seikiai","administrativeDivision":"Kauno rajono savivaldyb\u0117","countryCode":"LT","coordinates":{"latitude":55.00207,"longitude":24.08679}},{"code":"draseikiai-2","name":"Dr\u0105seikiai","administrativeDivision":"Bir\u017e\u0173 rajono savivaldyb\u0117","countryCode":"LT","coordinates":{"latitude":56.24321,"longitude":24.75831}},{"code":"drasuciai","name":"Dr\u0105su\u010diai","administrativeDivision":"\u0160iauli\u0173 rajono savivaldyb\u0117","countryCode":"LT","coordinates":{"latitude":56.03048,"longitude":22.97769}},{"code":"drasutaiciai","name":"Dr\u0105sutai\u010diai","administrativeDivision":"Joni\u0161kio rajono savivaldyb\u0117","countryCode":"LT","coordinates":{"latitude":56.34507,"longitude":23.72844}},{"code":"draudeliai","name":"Draudeliai","administrativeDivision":"Pakruojo rajono savivaldyb\u0117","countryCode":"LT","coordinates":{"latitude":56.12233,"longitude":23.81318}},{"code":"dreverna","name":"Dreverna","administrativeDivision":"Klaip\u0117dos rajono savivaldyb\u0117","countryCode":"LT","coordinates":{"latitude":55.5195,"longitude":21.2453}},{"code":"drobuksciai","name":"Drob\u016bk\u0161\u010diai","administrativeDivision":"\u0160ilal\u0117s rajono savivaldyb\u0117","countryCode":"LT","coordinates":{"latitude":55.52574,"longitude":22.03861}},{"code":"drobuksciai-2","name":"Drob\u016bk\u0161\u010diai","administrativeDivision":"Tel\u0161i\u0173 rajono savivaldyb\u0117","countryCode":"LT","coordinates":{"latitude":55.70098,"longitude":22.27344}},{"code":"druskininkai","name":"Druskininkai","administrativeDivision":"Druskinink\u0173 savivaldyb\u0117","countryCode":"LT","coordinates":{"latitude":54.01719,"longitude":23.97723}},{"code":"druzai","name":"Dru\u017eai","administrativeDivision":"\u0160irvint\u0173 rajono savivaldyb\u0117","countryCode":"LT","coordinates":{"latitude":55.02237,"longitude":24.89093}},{"code":"dubenai","name":"Dub\u0117nai","administrativeDivision":"Kelm\u0117s rajono savivaldyb\u0117","countryCode":"LT","coordinates":{"latitude":55.74773,"longitude":22.79429}},{"code":"dubiciai","name":"Dubi\u010diai","administrativeDivision":"Var\u0117nos rajono savivaldyb\u0117","countryCode":"LT","coordinates":{"latitude":54.0189,"longitude":24.7416}},{"code":"dubingiai","name":"Dubingiai","administrativeDivision":"Mol\u0117t\u0173 rajono savivaldyb\u0117","countryCode":"LT","coordinates":{"latitude":55.05851,"longitude":25.44986}},{"code":"dubravai","name":"Dubravai","administrativeDivision":"Kauno rajono savivaldyb\u0117","countryCode":"LT","coordinates":{"latitude":54.83583,"longitude":24.11878}},{"code":"dukstas","name":"D\u016bk\u0161tas","administrativeDivision":"Ignalinos rajono savivaldyb\u0117","countryCode":"LT","coordinates":{"latitude":55.51996,"longitude":26.32177}},{"code":"dukstos","name":"D\u016bk\u0161tos","administrativeDivision":"Vilniaus rajono savivaldyb\u0117","countryCode":"LT","coordinates":{"latitude":54.82517,"longitude":24.96972}},{"code":"dukurnonys","name":"Dukurnonys","administrativeDivision":"Prien\u0173 rajono savivaldyb\u0117","countryCode":"LT","coordinates":{"latitude":54.66022,"longitude":24.21678}},{"code":"duobiskiai","name":"Duobi\u0161kiai","administrativeDivision":"\u0160aki\u0173 rajono savivaldyb\u0117","countryCode":"LT","coordinates":{"latitude":54.96139,"longitude":22.95276}},{"code":"duokiskis","name":"Duoki\u0161kis","administrativeDivision":"Roki\u0161kio rajono savivaldyb\u0117","countryCode":"LT","coordinates":{"latitude":55.74414,"longitude":25.52595}},{"code":"dupulciai","name":"Dupul\u010diai","administrativeDivision":"Kretingos rajono savivaldyb\u0117","countryCode":"LT","coordinates":{"latitude":55.87764,"longitude":21.29372}},{"code":"duseikiai","name":"D\u016bseikiai","administrativeDivision":"Tel\u0161i\u0173 rajono savivaldyb\u0117","countryCode":"LT","coordinates":{"latitude":55.97687,"longitude":22.46399}},{"code":"dusetos","name":"Dusetos","administrativeDivision":"Zaras\u0173 rajono savivaldyb\u0117","countryCode":"LT","coordinates":{"latitude":55.74868,"longitude":25.84552}},{"code":"dusinenai","name":"Dusin\u0117nai","administrativeDivision":"Vilniaus rajono savivaldyb\u0117","countryCode":"LT","coordinates":{"latitude":54.56683,"longitude":25.27472}},{"code":"dusmenys","name":"Dusmenys","administrativeDivision":"Trak\u0173 rajono savivaldyb\u0117","countryCode":"LT","coordinates":{"latitude":54.43528,"longitude":24.50123}},{"code":"dvariskes","name":"Dvari\u0161k\u0117s","administrativeDivision":"Vilniaus rajono savivaldyb\u0117","countryCode":"LT","coordinates":{"latitude":54.8202,"longitude":25.2655}},{"code":"dvariskiai","name":"Dvari\u0161kiai","administrativeDivision":"Pakruojo rajono savivaldyb\u0117","countryCode":"LT","coordinates":{"latitude":56.00972,"longitude":23.63568}},{"code":"dvylikiai","name":"Dvylikiai","administrativeDivision":"Prien\u0173 rajono savivaldyb\u0117","countryCode":"LT","coordinates":{"latitude":54.74722,"longitude":24.04125}},{"code":"dziuginenai","name":"D\u017eiugin\u0117nai","administrativeDivision":"Tel\u0161i\u0173 rajono savivaldyb\u0117","countryCode":"LT","coordinates":{"latitude":55.98356,"longitude":22.17595}},{"code":"dzukai","name":"Dz\u016bkai","administrativeDivision":"Lazdij\u0173 rajono savivaldyb\u0117","countryCode":"LT","coordinates":{"latitude":54.2926,"longitude":23.3993}},{"code":"egliskes","name":"Egli\u0161k\u0117s","administrativeDivision":"Vilniaus rajono savivaldyb\u0117","countryCode":"LT","coordinates":{"latitude":54.71747,"longitude":25.42363}},{"code":"eiciai","name":"Ei\u010diai","administrativeDivision":"Taurag\u0117s rajono savivaldyb\u0117","countryCode":"LT","coordinates":{"latitude":55.16451,"longitude":22.48275}},{"code":"eiciunai","name":"Ei\u010di\u016bnai","administrativeDivision":"Alytaus rajono savivaldyb\u0117","countryCode":"LT","coordinates":{"latitude":54.5025,"longitude":24.3188}},{"code":"eidintai","name":"Eidintai","administrativeDivision":"Taurag\u0117s rajono savivaldyb\u0117","countryCode":"LT","coordinates":{"latitude":55.33061,"longitude":22.51907}},{"code":"eigirdziai","name":"Eigird\u017eiai","administrativeDivision":"Tel\u0161i\u0173 rajono savivaldyb\u0117","countryCode":"LT","coordinates":{"latitude":56.00893,"longitude":22.37579}},{"code":"eiksciai","name":"Eik\u0161\u010diai","administrativeDivision":"Kauno rajono savivaldyb\u0117","countryCode":"LT","coordinates":{"latitude":55.14165,"longitude":23.51774}},{"code":"eimuciai","name":"Eimu\u010diai","administrativeDivision":"\u0160iauli\u0173 rajono savivaldyb\u0117","countryCode":"LT","coordinates":{"latitude":55.94431,"longitude":23.55824}},{"code":"einoraiciai","name":"Einorai\u010diai","administrativeDivision":"\u0160iauli\u0173 rajono savivaldyb\u0117","countryCode":"LT","coordinates":{"latitude":55.81823,"longitude":23.31703}},{"code":"eisiskes","name":"Ei\u0161i\u0161k\u0117s","administrativeDivision":"\u0160al\u010dinink\u0173 rajono savivaldyb\u0117","countryCode":"LT","coordinates":{"latitude":54.16865,"longitude":25.00012}},{"code":"eitminiskes","name":"Eitmini\u0161k\u0117s","administrativeDivision":"Vilniaus rajono savivaldyb\u0117","countryCode":"LT","coordinates":{"latitude":54.92184,"longitude":25.39011}},{"code":"elektrenai","name":"Elektr\u0117nai","administrativeDivision":"Elektr\u0117n\u0173 savivaldyb\u0117","countryCode":"LT","coordinates":{"latitude":54.78666,"longitude":24.67084}},{"code":"elmininkai-i","name":"Elmininkai I","administrativeDivision":"Anyk\u0161\u010di\u0173 rajono savivaldyb\u0117","countryCode":"LT","coordinates":{"latitude":55.55435,"longitude":25.20262}},{"code":"emiliskes","name":"Emili\u0161k\u0117s","administrativeDivision":"\u0160al\u010dinink\u0173 rajono savivaldyb\u0117","countryCode":"LT","coordinates":{"latitude":54.17918,"longitude":25.06624}},{"code":"endriejavas","name":"Endriejavas","administrativeDivision":"Klaip\u0117dos rajono savivaldyb\u0117","countryCode":"LT","coordinates":{"latitude":55.70002,"longitude":21.7176}},{"code":"eriskiai","name":"\u0116ri\u0161kiai","administrativeDivision":"Panev\u0117\u017eio rajono savivaldyb\u0117","countryCode":"LT","coordinates":{"latitude":55.57869,"longitude":24.26298}},{"code":"erlenai","name":"Erl\u0117nai","administrativeDivision":"Kretingos rajono savivaldyb\u0117","countryCode":"LT","coordinates":{"latitude":56.08359,"longitude":21.57519}},{"code":"erzvilkas","name":"Er\u017evilkas","administrativeDivision":"Jurbarko rajono savivaldyb\u0117","countryCode":"LT","coordinates":{"latitude":55.26257,"longitude":22.7062}},{"code":"ezerelis","name":"E\u017eer\u0117lis","administrativeDivision":"Kauno rajono savivaldyb\u0117","countryCode":"LT","coordinates":{"latitude":54.88304,"longitude":23.59948}},{"code":"ferma","name":"Ferma","administrativeDivision":"Panev\u0117\u017eio rajono savivaldyb\u0117","countryCode":"LT","coordinates":{"latitude":55.5663,"longitude":24.63636}},{"code":"gabriliava","name":"Gabriliava","administrativeDivision":"Elektr\u0117n\u0173 savivaldyb\u0117","countryCode":"LT","coordinates":{"latitude":54.80745,"longitude":24.6634}},{"code":"gabsiai","name":"Gab\u0161iai","administrativeDivision":"Raseini\u0173 rajono savivaldyb\u0117","countryCode":"LT","coordinates":{"latitude":55.34924,"longitude":23.10711}},{"code":"gacioniai","name":"Ga\u010dioniai","administrativeDivision":"Pakruojo rajono savivaldyb\u0117","countryCode":"LT","coordinates":{"latitude":55.88481,"longitude":24.00387}},{"code":"gadunavas","name":"Gad\u016bnavas","administrativeDivision":"Tel\u0161i\u0173 rajono savivaldyb\u0117","countryCode":"LT","coordinates":{"latitude":56.06532,"longitude":22.21422}},{"code":"gaideliai","name":"Gaideliai","administrativeDivision":"\u0160ilut\u0117s rajono savivaldyb\u0117","countryCode":"LT","coordinates":{"latitude":55.31096,"longitude":21.53285}},{"code":"gaidunai","name":"Gaid\u016bnai","administrativeDivision":"Vilniaus rajono savivaldyb\u0117","countryCode":"LT","coordinates":{"latitude":54.71494,"longitude":25.50577}},{"code":"gailaiciai","name":"Gailai\u010diai","administrativeDivision":"Akmen\u0117s rajono savivaldyb\u0117","countryCode":"LT","coordinates":{"latitude":56.28345,"longitude":22.7347}},{"code":"gailiai","name":"Gailiai","administrativeDivision":"Kelm\u0117s rajono savivaldyb\u0117","countryCode":"LT","coordinates":{"latitude":55.53237,"longitude":22.98761}},{"code":"gailiakiemis","name":"Gailiakiemis","administrativeDivision":"Alytaus rajono savivaldyb\u0117","countryCode":"LT","coordinates":{"latitude":54.5512,"longitude":24.2516}},{"code":"gailiunai","name":"Gaili\u016bnai","administrativeDivision":"Druskinink\u0173 savivaldyb\u0117","countryCode":"LT","coordinates":{"latitude":54.0475,"longitude":24.0036}},{"code":"gaizaiciai","name":"Gai\u017eai\u010diai","administrativeDivision":"Joni\u0161kio rajono savivaldyb\u0117","countryCode":"LT","coordinates":{"latitude":56.26178,"longitude":23.1608}},{"code":"gaizenai","name":"Gai\u017e\u0117nai","administrativeDivision":"Kauno rajono savivaldyb\u0117","countryCode":"LT","coordinates":{"latitude":54.90526,"longitude":23.71368}},{"code":"gaizeneliai","name":"Gai\u017e\u0117n\u0117liai","administrativeDivision":"Kauno rajono savivaldyb\u0117","countryCode":"LT","coordinates":{"latitude":54.91792,"longitude":23.68921}},{"code":"gaiziunai","name":"Gai\u017ei\u016bnai","administrativeDivision":"Jonavos rajono savivaldyb\u0117","countryCode":"LT","coordinates":{"latitude":55.03979,"longitude":24.3283}},{"code":"galgiai","name":"Galgiai","administrativeDivision":"Vilniaus rajono savivaldyb\u0117","countryCode":"LT","coordinates":{"latitude":54.72143,"longitude":25.41405}},{"code":"gardamas","name":"Gardamas","administrativeDivision":"\u0160ilut\u0117s rajono savivaldyb\u0117","countryCode":"LT","coordinates":{"latitude":55.40691,"longitude":21.65659}},{"code":"gargzdai","name":"Garg\u017edai","administrativeDivision":"Klaip\u0117dos rajono savivaldyb\u0117","countryCode":"LT","coordinates":{"latitude":55.71322,"longitude":21.38557}},{"code":"garliava","name":"Garliava","administrativeDivision":"Kauno rajono savivaldyb\u0117","countryCode":"LT","coordinates":{"latitude":54.82793,"longitude":23.87468}},{"code":"garuckai","name":"Garuckai","administrativeDivision":"Panev\u0117\u017eio rajono savivaldyb\u0117","countryCode":"LT","coordinates":{"latitude":55.50936,"longitude":24.33098}},{"code":"gasciunai","name":"Gas\u010di\u016bnai","administrativeDivision":"Joni\u0161kio rajono savivaldyb\u0117","countryCode":"LT","coordinates":{"latitude":56.14556,"longitude":23.62469}},{"code":"gatauciai","name":"Gatau\u010diai","administrativeDivision":"Joni\u0161kio rajono savivaldyb\u0117","countryCode":"LT","coordinates":{"latitude":56.15494,"longitude":23.5307}},{"code":"gaudikaiciai","name":"Gaudikai\u010diai","administrativeDivision":"Tel\u0161i\u0173 rajono savivaldyb\u0117","countryCode":"LT","coordinates":{"latitude":56.01257,"longitude":22.2352}},{"code":"gaure","name":"Gaur\u0117","administrativeDivision":"Taurag\u0117s rajono savivaldyb\u0117","countryCode":"LT","coordinates":{"latitude":55.24331,"longitude":22.46861}},{"code":"gavaltuva","name":"Gavaltuva","administrativeDivision":"Marijampol\u0117s savivaldyb\u0117","countryCode":"LT","coordinates":{"latitude":54.67517,"longitude":23.40616}},{"code":"gedintes","name":"Gedint\u0117s","administrativeDivision":"\u0160iauli\u0173 rajono savivaldyb\u0117","countryCode":"LT","coordinates":{"latitude":56.03871,"longitude":22.94137}},{"code":"gediskiai","name":"Gedi\u0161kiai","administrativeDivision":"Roki\u0161kio rajono savivaldyb\u0117","countryCode":"LT","coordinates":{"latitude":56.03508,"longitude":25.79079}},{"code":"gedrimai","name":"Gedrimai","administrativeDivision":"Tel\u0161i\u0173 rajono savivaldyb\u0117","countryCode":"LT","coordinates":{"latitude":56.07218,"longitude":22.12236}},{"code":"gegrenai","name":"Gegr\u0117nai","administrativeDivision":"Plung\u0117s rajono savivaldyb\u0117","countryCode":"LT","coordinates":{"latitude":56.09059,"longitude":21.93215}},{"code":"geguziai","name":"Gegu\u017eiai","administrativeDivision":"\u0160iauli\u0173 rajono savivaldyb\u0117","countryCode":"LT","coordinates":{"latitude":55.89072,"longitude":23.27821}},{"code":"geguzine","name":"Gegu\u017ein\u0117","administrativeDivision":"Panev\u0117\u017eio rajono savivaldyb\u0117","countryCode":"LT","coordinates":{"latitude":55.85255,"longitude":24.34264}},{"code":"geidziai","name":"Geid\u017eiai","administrativeDivision":"Ma\u017eeiki\u0173 rajono savivaldyb\u0117","countryCode":"LT","coordinates":{"latitude":56.28987,"longitude":22.25185}},{"code":"geidziunai","name":"Geid\u017ei\u016bnai","administrativeDivision":"Bir\u017e\u0173 rajono savivaldyb\u0117","countryCode":"LT","coordinates":{"latitude":56.10935,"longitude":24.8099}},{"code":"geisiskes","name":"Geisi\u0161k\u0117s","administrativeDivision":"Vilniaus rajono savivaldyb\u0117","countryCode":"LT","coordinates":{"latitude":54.86078,"longitude":24.92033}},{"code":"geisteriskiai","name":"Geisteri\u0161kiai","administrativeDivision":"Vilkavi\u0161kio rajono savivaldyb\u0117","countryCode":"LT","coordinates":{"latitude":54.56304,"longitude":23.1728}},{"code":"geisteriskiai-2","name":"Geisteri\u0161kiai","administrativeDivision":"Vilkavi\u0161kio rajono savivaldyb\u0117","countryCode":"LT","coordinates":{"latitude":54.53842,"longitude":23.02343}},{"code":"geleziai","name":"Gele\u017eiai","administrativeDivision":"Panev\u0117\u017eio rajono savivaldyb\u0117","countryCode":"LT","coordinates":{"latitude":55.84251,"longitude":24.69852}},{"code":"gelezunai","name":"Gele\u017e\u016bnai","administrativeDivision":"Bir\u0161tono savivaldyb\u0117","countryCode":"LT","coordinates":{"latitude":54.57005,"longitude":24.07693}},{"code":"gelgaudiskis","name":"Gelgaudi\u0161kis","administrativeDivision":"\u0160aki\u0173 rajono savivaldyb\u0117","countryCode":"LT","coordinates":{"latitude":55.07688,"longitude":22.97555}},{"code":"geluva","name":"G\u0117luva","administrativeDivision":"Raseini\u0173 rajono savivaldyb\u0117","countryCode":"LT","coordinates":{"latitude":55.25167,"longitude":23.50735}},{"code":"gelvonai","name":"Gelvonai","administrativeDivision":"\u0160irvint\u0173 rajono savivaldyb\u0117","countryCode":"LT","coordinates":{"latitude":55.06669,"longitude":24.69223}},{"code":"geniai","name":"Geniai","administrativeDivision":"Alytaus rajono savivaldyb\u0117","countryCode":"LT","coordinates":{"latitude":54.4717,"longitude":23.9603}},{"code":"gerduvenai","name":"Gerduv\u0117nai","administrativeDivision":"Klaip\u0117dos rajono savivaldyb\u0117","countryCode":"LT","coordinates":{"latitude":55.7301,"longitude":21.4314}},{"code":"gerdziunai","name":"Gerd\u017ei\u016bnai","administrativeDivision":"\u0160aki\u0173 rajono savivaldyb\u0117","countryCode":"LT","coordinates":{"latitude":55.02625,"longitude":23.34389}},{"code":"gergzdeliai","name":"Gerg\u017edeliai","administrativeDivision":"\u0160iauli\u0173 rajono savivaldyb\u0117","countryCode":"LT","coordinates":{"latitude":56.00854,"longitude":22.99402}},{"code":"germaniskis","name":"Germani\u0161kis","administrativeDivision":"Bir\u017e\u0173 rajono savivaldyb\u0117","countryCode":"LT","coordinates":{"latitude":56.37502,"longitude":24.64816}},{"code":"geruliai","name":"Geruliai","administrativeDivision":"Prien\u0173 rajono savivaldyb\u0117","countryCode":"LT","coordinates":{"latitude":54.50244,"longitude":23.89577}},{"code":"gervenai","name":"Gerv\u0117nai","administrativeDivision":"\u0160iauli\u0173 rajono savivaldyb\u0117","countryCode":"LT","coordinates":{"latitude":55.8669,"longitude":23.10643}},{"code":"gervenai-2","name":"Gerv\u0117nai","administrativeDivision":"Lazdij\u0173 rajono savivaldyb\u0117","countryCode":"LT","coordinates":{"latitude":54.2441,"longitude":23.8362}},{"code":"gervenupis","name":"Gerv\u0117nupis","administrativeDivision":"Kauno rajono savivaldyb\u0117","countryCode":"LT","coordinates":{"latitude":54.83923,"longitude":24.13482}},{"code":"gervine","name":"Gervin\u0117","administrativeDivision":"Raseini\u0173 rajono savivaldyb\u0117","countryCode":"LT","coordinates":{"latitude":55.33589,"longitude":22.99034}},{"code":"gerviskes","name":"Gervi\u0161k\u0117s","administrativeDivision":"\u0160al\u010dinink\u0173 rajono savivaldyb\u0117","countryCode":"LT","coordinates":{"latitude":54.28934,"longitude":25.20963}},{"code":"gesalai","name":"G\u0117salai","administrativeDivision":"Skuodo rajono savivaldyb\u0117","countryCode":"LT","coordinates":{"latitude":56.30959,"longitude":21.77862}},{"code":"giedraiciai","name":"Giedrai\u010diai","administrativeDivision":"Mol\u0117t\u0173 rajono savivaldyb\u0117","countryCode":"LT","coordinates":{"latitude":55.07342,"longitude":25.26125}},{"code":"giedraiciai-2","name":"Giedrai\u010diai","administrativeDivision":"Radvili\u0161kio rajono savivaldyb\u0117","countryCode":"LT","coordinates":{"latitude":55.56833,"longitude":23.54519}},{"code":"giedriai","name":"Giedriai","administrativeDivision":"Vilkavi\u0161kio rajono savivaldyb\u0117","countryCode":"LT","coordinates":{"latitude":54.68216,"longitude":23.01658}},{"code":"giedruciai","name":"Giedru\u010diai","administrativeDivision":"\u0160aki\u0173 rajono savivaldyb\u0117","countryCode":"LT","coordinates":{"latitude":54.9608,"longitude":23.02279}},{"code":"gilaiciai","name":"Gilai\u010diai","administrativeDivision":"\u0160iauli\u0173 rajono savivaldyb\u0117","countryCode":"LT","coordinates":{"latitude":55.93546,"longitude":23.0809}},{"code":"giliogiris","name":"Giliogiris","administrativeDivision":"Rietavo savivaldyb\u0117","countryCode":"LT","coordinates":{"latitude":55.75198,"longitude":22.00889}},{"code":"giluciai","name":"Gilu\u010diai","administrativeDivision":"Elektr\u0117n\u0173 savivaldyb\u0117","countryCode":"LT","coordinates":{"latitude":54.81175,"longitude":24.61981}},{"code":"gilutos","name":"Gil\u016btos","administrativeDivision":"Ignalinos rajono savivaldyb\u0117","countryCode":"LT","coordinates":{"latitude":55.2377,"longitude":26.54057}},{"code":"giluziai","name":"Gilu\u017eiai","administrativeDivision":"Vilniaus rajono savivaldyb\u0117","countryCode":"LT","coordinates":{"latitude":54.75097,"longitude":25.16732}},{"code":"gilvyciai","name":"Gilvy\u010diai","administrativeDivision":"\u0160iauli\u0173 rajono savivaldyb\u0117","countryCode":"LT","coordinates":{"latitude":55.88395,"longitude":22.97454}},{"code":"ginduliai","name":"Ginduliai","administrativeDivision":"Klaip\u0117dos rajono savivaldyb\u0117","countryCode":"LT","coordinates":{"latitude":55.7309,"longitude":21.1923}},{"code":"gineikiai","name":"Gineikiai","administrativeDivision":"\u0160ilal\u0117s rajono savivaldyb\u0117","countryCode":"LT","coordinates":{"latitude":55.53376,"longitude":22.49524}},{"code":"gineitiskes","name":"Gineiti\u0161k\u0117s","administrativeDivision":"Vilniaus rajono savivaldyb\u0117","countryCode":"LT","coordinates":{"latitude":54.74054,"longitude":25.20027}},{"code":"ginenai","name":"Gin\u0117nai","administrativeDivision":"Kauno rajono savivaldyb\u0117","countryCode":"LT","coordinates":{"latitude":54.96256,"longitude":23.9948}},{"code":"ginkunai","name":"Gink\u016bnai","administrativeDivision":"\u0160iauli\u0173 rajono savivaldyb\u0117","countryCode":"LT","coordinates":{"latitude":55.95567,"longitude":23.35886}},{"code":"gintalai","name":"Gintalai","administrativeDivision":"Tel\u0161i\u0173 rajono savivaldyb\u0117","countryCode":"LT","coordinates":{"latitude":55.75175,"longitude":22.3441}},{"code":"gintaliske","name":"Gintali\u0161k\u0117","administrativeDivision":"Plung\u0117s rajono savivaldyb\u0117","countryCode":"LT","coordinates":{"latitude":56.04949,"longitude":21.7258}},{"code":"gintauciai","name":"Gintau\u010diai","administrativeDivision":"Raseini\u0173 rajono savivaldyb\u0117","countryCode":"LT","coordinates":{"latitude":55.48785,"longitude":23.32563}},{"code":"giraite","name":"Girait\u0117","administrativeDivision":"Kauno rajono savivaldyb\u0117","countryCode":"LT","coordinates":{"latitude":54.9535,"longitude":23.86443}},{"code":"girdeniai","name":"Girdeniai","administrativeDivision":"Skuodo rajono savivaldyb\u0117","countryCode":"LT","coordinates":{"latitude":56.30698,"longitude":21.86011}},{"code":"girdiske","name":"Girdi\u0161k\u0117","administrativeDivision":"\u0160ilal\u0117s rajono savivaldyb\u0117","countryCode":"LT","coordinates":{"latitude":55.46601,"longitude":22.51605}},{"code":"girdziai","name":"Gird\u017eiai","administrativeDivision":"Jurbarko rajono savivaldyb\u0117","countryCode":"LT","coordinates":{"latitude":55.16382,"longitude":22.79708}},{"code":"girenai","name":"Gir\u0117nai","administrativeDivision":"\u0160aki\u0173 rajono savivaldyb\u0117","countryCode":"LT","coordinates":{"latitude":54.95514,"longitude":23.06537}},{"code":"girenai-2","name":"Gir\u0117nai","administrativeDivision":"Vilkavi\u0161kio rajono savivaldyb\u0117","countryCode":"LT","coordinates":{"latitude":54.53241,"longitude":22.71938}},{"code":"girenai-3","name":"Gir\u0117nai","administrativeDivision":"Rietavo savivaldyb\u0117","countryCode":"LT","coordinates":{"latitude":55.63264,"longitude":21.99647}},{"code":"girininkai","name":"Girininkai","administrativeDivision":"Klaip\u0117dos rajono savivaldyb\u0117","countryCode":"LT","coordinates":{"latitude":55.68011,"longitude":21.51174}},{"code":"girininkai-2","name":"Girininkai","administrativeDivision":"Kauno rajono savivaldyb\u0117","countryCode":"LT","coordinates":{"latitude":54.77626,"longitude":23.95552}},{"code":"girininkai-ii","name":"Girininkai II","administrativeDivision":"Jonavos rajono savivaldyb\u0117","countryCode":"LT","coordinates":{"latitude":54.98707,"longitude":24.11559}},{"code":"girionys","name":"Girionys","administrativeDivision":"Kauno rajono savivaldyb\u0117","countryCode":"LT","coordinates":{"latitude":54.85962,"longitude":24.04875}},{"code":"girkaliai","name":"Girkaliai","administrativeDivision":"Klaip\u0117dos rajono savivaldyb\u0117","countryCode":"LT","coordinates":{"latitude":55.87127,"longitude":21.11428}},{"code":"girkalnis","name":"Girkalnis","administrativeDivision":"Raseini\u0173 rajono savivaldyb\u0117","countryCode":"LT","coordinates":{"latitude":55.31137,"longitude":23.20203}},{"code":"girminiai","name":"Girminiai","administrativeDivision":"Ignalinos rajono savivaldyb\u0117","countryCode":"LT","coordinates":{"latitude":55.34109,"longitude":26.19678}},{"code":"girnikai","name":"Girnikai","administrativeDivision":"Kelm\u0117s rajono savivaldyb\u0117","countryCode":"LT","coordinates":{"latitude":55.79063,"longitude":22.64201}},{"code":"girsteitiskis","name":"Girsteiti\u0161kis","administrativeDivision":"Mol\u0117t\u0173 rajono savivaldyb\u0117","countryCode":"LT","coordinates":{"latitude":55.2849,"longitude":25.27291}},{"code":"girsudai","name":"Girs\u016bdai","administrativeDivision":"Pasvalio rajono savivaldyb\u0117","countryCode":"LT","coordinates":{"latitude":56.0153,"longitude":24.48574}},{"code":"girvainiai","name":"Girvainiai","administrativeDivision":"\u0160ilal\u0117s rajono savivaldyb\u0117","countryCode":"LT","coordinates":{"latitude":55.59277,"longitude":22.28046}},{"code":"gizai","name":"Gi\u017eai","administrativeDivision":"Vilkavi\u0161kio rajono savivaldyb\u0117","countryCode":"LT","coordinates":{"latitude":54.60536,"longitude":23.22378}},{"code":"glaudziai","name":"Glaud\u017eiai","administrativeDivision":"Plung\u0117s rajono savivaldyb\u0117","countryCode":"LT","coordinates":{"latitude":55.90254,"longitude":21.91417}},{"code":"glitiskes","name":"Gliti\u0161k\u0117s","administrativeDivision":"Vilniaus rajono savivaldyb\u0117","countryCode":"LT","coordinates":{"latitude":54.98373,"longitude":25.23061}},{"code":"gobergiske","name":"Gobergi\u0161k\u0117","administrativeDivision":"Klaip\u0117dos rajono savivaldyb\u0117","countryCode":"LT","coordinates":{"latitude":55.71906,"longitude":21.30269}},{"code":"gojus","name":"Gojus","administrativeDivision":"\u0160al\u010dinink\u0173 rajono savivaldyb\u0117","countryCode":"LT","coordinates":{"latitude":54.4207,"longitude":25.31985}},{"code":"gorainiai","name":"Gorainiai","administrativeDivision":"\u0160ilut\u0117s rajono savivaldyb\u0117","countryCode":"LT","coordinates":{"latitude":55.40205,"longitude":21.92777}},{"code":"gotlybiskiai","name":"Gotlybi\u0161kiai","administrativeDivision":"\u0160aki\u0173 rajono savivaldyb\u0117","countryCode":"LT","coordinates":{"latitude":54.96392,"longitude":22.87202}},{"code":"grabupiai","name":"Grabupiai","administrativeDivision":"\u0160ilut\u0117s rajono savivaldyb\u0117","countryCode":"LT","coordinates":{"latitude":55.36904,"longitude":21.50937}},{"code":"graziskiai","name":"Gra\u017ei\u0161kiai","administrativeDivision":"Vilkavi\u0161kio rajono savivaldyb\u0117","countryCode":"LT","coordinates":{"latitude":54.46739,"longitude":22.92219}},{"code":"grazuciai","name":"Gra\u017eu\u010diai","administrativeDivision":"Prien\u0173 rajono savivaldyb\u0117","countryCode":"LT","coordinates":{"latitude":54.7161,"longitude":23.89643}},{"code":"grendave","name":"Grendav\u0117","administrativeDivision":"Trak\u0173 rajono savivaldyb\u0117","countryCode":"LT","coordinates":{"latitude":54.49816,"longitude":24.67388}},{"code":"griciai","name":"Griciai","administrativeDivision":"Jurbarko rajono savivaldyb\u0117","countryCode":"LT","coordinates":{"latitude":55.2206,"longitude":23.2644}},{"code":"grigaiciai","name":"Grigai\u010diai","administrativeDivision":"Vilniaus rajono savivaldyb\u0117","countryCode":"LT","coordinates":{"latitude":54.66983,"longitude":25.41538}},{"code":"grikiapeliai","name":"Grikiapeliai","administrativeDivision":"Anyk\u0161\u010di\u0173 rajono savivaldyb\u0117","countryCode":"LT","coordinates":{"latitude":55.65218,"longitude":25.32585}},{"code":"grikieniai","name":"Grikieniai","administrativeDivision":"Vilniaus rajono savivaldyb\u0117","countryCode":"LT","coordinates":{"latitude":54.77558,"longitude":25.10729}},{"code":"grikpedziai","name":"Grikp\u0117d\u017eiai","administrativeDivision":"Pakruojo rajono savivaldyb\u0117","countryCode":"LT","coordinates":{"latitude":56.20964,"longitude":23.91709}},{"code":"grimzdai","name":"Grimzdai","administrativeDivision":"\u0160ilal\u0117s rajono savivaldyb\u0117","countryCode":"LT","coordinates":{"latitude":55.58598,"longitude":21.96232}},{"code":"grimziai","name":"Grimziai","administrativeDivision":"Kelm\u0117s rajono savivaldyb\u0117","countryCode":"LT","coordinates":{"latitude":55.70105,"longitude":23.00609}},{"code":"grinaiciai","name":"Grinai\u010diai","administrativeDivision":"\u0160aki\u0173 rajono savivaldyb\u0117","countryCode":"LT","coordinates":{"latitude":55.04333,"longitude":22.65146}},{"code":"griniai","name":"Griniai","administrativeDivision":"Kelm\u0117s rajono savivaldyb\u0117","countryCode":"LT","coordinates":{"latitude":55.54746,"longitude":22.80829}},